[{"idx":0,"use":"Y","lineNum":"1호선","lineMng":1,"lineCode":"1001","stationCode":"1916","stationNum":"100","stationName":"소요산","stationSub":"/","stationNmEng":"Soyosan","platform":"양쪽","lavatory":"바깥","cross":"연결안됨","posLat":"37.9474677263" ,"posLng":"127.0607582463" },
{"idx":1,"use":"Y","lineNum":"1호선","lineMng":1,"lineCode":"1001","stationCode":"1915","stationNum":"101","stationName":"동두천","stationSub":"/","stationNmEng":"Dongducheon","platform":"양쪽","lavatory":"바깥","cross":"연결됨","posLat":"37.9277948245" ,"posLng":"127.0545927984" },
{"idx":2,"use":"Y","lineNum":"1호선","lineMng":1,"lineCode":"1001","stationCode":"1914","stationNum":"102","stationName":"보산","stationSub":"/","stationNmEng":"Bosan","platform":"양쪽","lavatory":"바깥","cross":"연결됨","posLat":"37.9142734015" ,"posLng":"127.0571539078" },
{"idx":3,"use":"Y","lineNum":"1호선","lineMng":1,"lineCode":"1001","stationCode":"1913","stationNum":"103","stationName":"동두천중앙","stationSub":"/","stationNmEng":"Dongducheonjungang","platform":"양쪽","lavatory":"바깥","cross":"연결됨","posLat":"37.9015527263" ,"posLng":"127.0562016500" },
{"idx":4,"use":"Y","lineNum":"1호선","lineMng":1,"lineCode":"1001","stationCode":"1912","stationNum":"104","stationName":"지행","stationSub":"/","stationNmEng":"Jihaeng","platform":"양쪽","lavatory":"바깥","cross":"연결됨","posLat":"37.8924654061" ,"posLng":"127.0555443912" },
{"idx":5,"use":"Y","lineNum":"1호선","lineMng":1,"lineCode":"1001","stationCode":"1911","stationNum":"105","stationName":"덕정","stationSub":"/","stationNmEng":"Deokjeong","platform":"양쪽","lavatory":"바깥","cross":"연결됨","posLat":"37.8432194073" ,"posLng":"127.0615346470" },
{"idx":6,"use":"Y","lineNum":"1호선","lineMng":1,"lineCode":"1001","stationCode":"1910","stationNum":"106","stationName":"덕계","stationSub":"/","stationNmEng":"Deokgye","platform":"양쪽","lavatory":"바깥","cross":"연결됨","posLat":"37.8187725300" ,"posLng":"127.0566985902" },
{"idx":7,"use":"Y","lineNum":"1호선","lineMng":1,"lineCode":"1001","stationCode":"1909","stationNum":"107","stationName":"양주","stationSub":"/","stationNmEng":"Yangju","platform":"양쪽","lavatory":"바깥","cross":"연결됨","posLat":"37.7739685930" ,"posLng":"127.0448036784" },
{"idx":8,"use":"Y","lineNum":"1호선","lineMng":1,"lineCode":"1001","stationCode":"1908","stationNum":"108","stationName":"녹양","stationSub":"/","stationNmEng":"Nogyang","platform":"양쪽","lavatory":"바깥","cross":"연결됨","posLat":"37.7590820337" ,"posLng":"127.0423619080" },
{"idx":9,"use":"Y","lineNum":"1호선","lineMng":1,"lineCode":"1001","stationCode":"1907","stationNum":"109","stationName":"가능","stationSub":"/","stationNmEng":"Ganeung","platform":"양쪽","lavatory":"바깥","cross":"연결됨","posLat":"37.7486455673" ,"posLng":"127.0442550618" },
{"idx":10,"use":"Y","lineNum":"1호선","lineMng":1,"lineCode":"1001","stationCode":"1906","stationNum":"110","stationName":"의정부","stationSub":"/","stationNmEng":"Uijeongbu","platform":"중앙","lavatory":"바깥","cross":"연결됨","posLat":"37.7383882220" ,"posLng":"127.0460205537" },
{"idx":11,"use":"Y","lineNum":"1호선","lineMng":1,"lineCode":"1001","stationCode":"1905","stationNum":"111","stationName":"회룡","stationSub":"/","stationNmEng":"Hoeryong","platform":"양쪽","lavatory":"바깥","cross":"연결됨","posLat":"37.7240365784" ,"posLng":"127.0473387542" },
{"idx":12,"use":"Y","lineNum":"1호선","lineMng":1,"lineCode":"1001","stationCode":"1904","stationNum":"112","stationName":"망월사","stationSub":"/","stationNmEng":"Mangwolsa","platform":"중앙","lavatory":"안쪽","cross":"연결됨","posLat":"37.7105034957" ,"posLng":"127.0473756861" },
{"idx":13,"use":"Y","lineNum":"1호선","lineMng":1,"lineCode":"1001","stationCode":"1903","stationNum":"113","stationName":"도봉산","stationSub":"/","stationNmEng":"Dobongsan","platform":"양쪽","lavatory":"바깥","cross":"연결됨","posLat":"37.6895981231" ,"posLng":"127.0460667578" },
{"idx":14,"use":"Y","lineNum":"1호선","lineMng":1,"lineCode":"1001","stationCode":"1902","stationNum":"114","stationName":"도봉","stationSub":"/","stationNmEng":"Dobong","platform":"양쪽","lavatory":"안쪽","cross":"연결됨","posLat":"37.6794482748" ,"posLng":"127.0455390197" },
{"idx":15,"use":"Y","lineNum":"1호선","lineMng":1,"lineCode":"1001","stationCode":"1901","stationNum":"115","stationName":"방학","stationSub":"/","stationNmEng":"Banghak","platform":"양쪽","lavatory":"안쪽","cross":"연결됨","posLat":"37.6674816567" ,"posLng":"127.0443092037" },
{"idx":16,"use":"Y","lineNum":"1호선","lineMng":1,"lineCode":"1001","stationCode":"1022","stationNum":"116","stationName":"창동","stationSub":"/","stationNmEng":"Chang-dong","platform":"복선(국철)","lavatory":"안쪽","cross":"연결됨","posLat":"37.6537217232" ,"posLng":"127.0475112100" },
{"idx":17,"use":"Y","lineNum":"1호선","lineMng":1,"lineCode":"1001","stationCode":"1021","stationNum":"117","stationName":"녹천","stationSub":"/","stationNmEng":"Nokcheon","platform":"양쪽","lavatory":"안쪽","cross":"연결됨","posLat":"37.6449397776" ,"posLng":"127.0512606259" },
{"idx":18,"use":"Y","lineNum":"1호선","lineMng":1,"lineCode":"1001","stationCode":"1020","stationNum":"118","stationName":"월계","stationSub":"/","stationNmEng":"Wolgye","platform":"양쪽","lavatory":"안쪽","cross":"연결됨","posLat":"37.6331248524" ,"posLng":"127.0588542886" },
{"idx":19,"use":"Y","lineNum":"1호선","lineMng":1,"lineCode":"1001","stationCode":"1019","stationNum":"119","stationName":"광운대","stationSub":"/","stationNmEng":"Kwangwoon Univ.","platform":"복선(국철)","lavatory":"바깥","cross":"연결됨","posLat":"37.6238395900" ,"posLng":"127.0616786716" },
{"idx":20,"use":"Y","lineNum":"1호선","lineMng":1,"lineCode":"1001","stationCode":"1018","stationNum":"120","stationName":"석계","stationSub":"/","stationNmEng":"Seokgye","platform":"중앙","lavatory":"안쪽","cross":"연결됨","posLat":"37.6153105381" ,"posLng":"127.0655689381" },
{"idx":21,"use":"Y","lineNum":"1호선","lineMng":1,"lineCode":"1001","stationCode":"1017","stationNum":"121","stationName":"신이문","stationSub":"/","stationNmEng":"Sinimun","platform":"양쪽","lavatory":"안쪽","cross":"연결됨","posLat":"37.6018450769" ,"posLng":"127.0673566174" },
{"idx":22,"use":"Y","lineNum":"1호선","lineMng":1,"lineCode":"1001","stationCode":"1016","stationNum":"122","stationName":"외대앞","stationSub":"/","stationNmEng":"Hankuk Univ. of Foreign Student","platform":"양쪽","lavatory":"안쪽","cross":"연결됨","posLat":"37.5961658345" ,"posLng":"127.0635998382" },
{"idx":23,"use":"Y","lineNum":"1호선","lineMng":1,"lineCode":"1001","stationCode":"1015","stationNum":"123","stationName":"회기","stationSub":"/","stationNmEng":"Hoegi","platform":"중앙","lavatory":"안쪽","cross":"연결됨","posLat":"37.5898047153" ,"posLng":"127.0579612151" },
{"idx":24,"use":"Y","lineNum":"1호선","lineMng":2,"lineCode":"1001","stationCode":"0158","stationNum":"124","stationName":"청량리","stationSub":"/","stationNmEng":"Cheongnyangni(University of Seoul)","platform":"중앙","lavatory":"바깥","cross":"연결됨","posLat":"37.5800215492" ,"posLng":"127.0447586787" },
{"idx":25,"use":"Y","lineNum":"1호선","lineMng":2,"lineCode":"1001","stationCode":"0157","stationNum":"125","stationName":"제기동","stationSub":"/","stationNmEng":"Jegi-dong","platform":"양쪽","lavatory":"안쪽","cross":"연결됨","posLat":"37.5781664980" ,"posLng":"127.0349100795" },
{"idx":26,"use":"Y","lineNum":"1호선","lineMng":2,"lineCode":"1001","stationCode":"0156","stationNum":"126","stationName":"신설동","stationSub":"/","stationNmEng":"Sinseol-dong","platform":"양쪽","lavatory":"바깥","cross":"연결됨","posLat":"37.5760266685" ,"posLng":"127.0244996298" },
{"idx":27,"use":"Y","lineNum":"1호선","lineMng":2,"lineCode":"1001","stationCode":"0159","stationNum":"127","stationName":"동묘앞","stationSub":"/","stationNmEng":"Dongmyo","platform":"양쪽","lavatory":"안쪽,바깥쪽","cross":"연결됨","posLat":"37.5732109661" ,"posLng":"127.0163514869" },
{"idx":28,"use":"Y","lineNum":"1호선","lineMng":2,"lineCode":"1001","stationCode":"0155","stationNum":"128","stationName":"동대문","stationSub":"/","stationNmEng":"Dongdaemun","platform":"양쪽","lavatory":"바깥","cross":"연결됨","posLat":"37.5716670335" ,"posLng":"127.0105757218" },
{"idx":29,"use":"Y","lineNum":"1호선","lineMng":2,"lineCode":"1001","stationCode":"0154","stationNum":"129","stationName":"종로5가","stationSub":"/","stationNmEng":"Jongno 5(o)-ga","platform":"양쪽","lavatory":"바깥","cross":"연결됨","posLat":"37.5709562206" ,"posLng":"127.0010534341" },
{"idx":30,"use":"Y","lineNum":"1호선","lineMng":2,"lineCode":"1001","stationCode":"0153","stationNum":"130","stationName":"종로3가","stationSub":"/","stationNmEng":"Jongno 3(sam)-ga","platform":"양쪽","lavatory":"바깥","cross":"연결됨","posLat":"37.5704304285" ,"posLng":"126.9921854141" },
{"idx":31,"use":"Y","lineNum":"1호선","lineMng":2,"lineCode":"1001","stationCode":"0152","stationNum":"131","stationName":"종각","stationSub":"/","stationNmEng":"Jonggak","platform":"양쪽","lavatory":"바깥","cross":"연결됨","posLat":"37.5701816071" ,"posLng":"126.9831213227" },
{"idx":32,"use":"Y","lineNum":"1호선","lineMng":2,"lineCode":"1001","stationCode":"0151","stationNum":"132","stationName":"시청","stationSub":"/","stationNmEng":"City Hall","platform":"양쪽","lavatory":"바깥","cross":"연결됨","posLat":"37.5654536059" ,"posLng":"126.9771409365" },
{"idx":33,"use":"Y","lineNum":"1호선","lineMng":2,"lineCode":"1001","stationCode":"0150","stationNum":"133","stationName":"서울역","stationSub":"/","stationNmEng":"Seoul Station","platform":"중앙","lavatory":"바깥","cross":"연결됨","posLat":"37.5559233726" ,"posLng":"126.9722684970" },
{"idx":34,"use":"Y","lineNum":"1호선","lineMng":1,"lineCode":"1001","stationCode":"1002","stationNum":"134","stationName":"남영","stationSub":"/","stationNmEng":"Namyeong","platform":"중앙","lavatory":"안쪽","cross":"연결됨","posLat":"37.5407405808" ,"posLng":"126.9712093050" },
{"idx":35,"use":"Y","lineNum":"1호선","lineMng":1,"lineCode":"1001","stationCode":"1003","stationNum":"135","stationName":"용산","stationSub":"/","stationNmEng":"Yongsan","platform":"복선(국철)","lavatory":"바깥","cross":"연결됨","posLat":"37.5299217612" ,"posLng":"126.9642977622" },
{"idx":36,"use":"Y","lineNum":"1호선","lineMng":1,"lineCode":"1001","stationCode":"1004","stationNum":"136","stationName":"노량진","stationSub":"/","stationNmEng":"Noryangjin","platform":"복선(국철)","lavatory":"바깥","cross":"연결됨","posLat":"37.5141361103" ,"posLng":"126.9429896048" },
{"idx":37,"use":"Y","lineNum":"1호선","lineMng":1,"lineCode":"1001","stationCode":"1005","stationNum":"137","stationName":"대방","stationSub":"/","stationNmEng":"Daebang","platform":"복선(국철)","lavatory":"안쪽","cross":"연결됨","posLat":"37.5134012531" ,"posLng":"126.9264285854" },
{"idx":38,"use":"Y","lineNum":"1호선","lineMng":1,"lineCode":"1001","stationCode":"1032","stationNum":"138","stationName":"신길","stationSub":"/","stationNmEng":"Singil","platform":"복선(국철)","lavatory":"안쪽","cross":"연결됨","posLat":"37.5170255093" ,"posLng":"126.9177569484" },
{"idx":39,"use":"Y","lineNum":"1호선","lineMng":1,"lineCode":"1001","stationCode":"1006","stationNum":"139","stationName":"영등포","stationSub":"/","stationNmEng":"Yeongdeungpo","platform":"복선(국철)","lavatory":"안쪽,바깥쪽","cross":"연결됨","posLat":"37.5157681550" ,"posLng":"126.9074247399" },
{"idx":40,"use":"Y","lineNum":"1호선","lineMng":1,"lineCode":"1001","stationCode":"1007","stationNum":"140","stationName":"신도림","stationSub":"/","stationNmEng":"Sindorim","platform":"복선(국철)","lavatory":"안쪽","cross":"연결됨","posLat":"37.5090072107" ,"posLng":"126.8915975395" },
{"idx":41,"use":"Y","lineNum":"1호선","lineMng":1,"lineCode":"1001","stationCode":"1701","stationNum":"141","stationName":"구로","stationSub":"/","stationNmEng":"Guro","platform":"복선(국철)","lavatory":"안쪽","cross":"연결됨","posLat":"37.5029185441" ,"posLng":"126.8822776231" },
{"idx":42,"use":"Y","lineNum":"1호선","lineMng":1,"lineCode":"1001","stationCode":"1813","stationNum":"142","stationName":"구일","stationSub":"/","stationNmEng":"Guil","platform":"중앙","lavatory":"안쪽","cross":"연결됨","posLat":"37.4962836981" ,"posLng":"126.8696199892" },
{"idx":43,"use":"Y","lineNum":"1호선","lineMng":1,"lineCode":"1001","stationCode":"1801","stationNum":"143","stationName":"개봉","stationSub":"/","stationNmEng":"Gaebong","platform":"양쪽","lavatory":"바깥","cross":"연결됨","posLat":"37.4947083511" ,"posLng":"126.8585160191" },
{"idx":44,"use":"Y","lineNum":"1호선","lineMng":1,"lineCode":"1001","stationCode":"1802","stationNum":"144","stationName":"오류동","stationSub":"/","stationNmEng":"Oryu-dong","platform":"양쪽","lavatory":"바깥","cross":"연결됨","posLat":"37.4944107020" ,"posLng":"126.8445657729" },
{"idx":45,"use":"Y","lineNum":"1호선","lineMng":1,"lineCode":"1001","stationCode":"1821","stationNum":"145","stationName":"온수","stationSub":"/","stationNmEng":"Onsu","platform":"양쪽","lavatory":"바깥","cross":"연결됨","posLat":"37.4922739853" ,"posLng":"126.8234183446" },
{"idx":46,"use":"Y","lineNum":"1호선","lineMng":1,"lineCode":"1001","stationCode":"1803","stationNum":"146","stationName":"역곡","stationSub":"/","stationNmEng":"Yeokgok","platform":"양쪽","lavatory":"바깥","cross":"연결됨","posLat":"37.4851360501" ,"posLng":"126.8115333032" },
{"idx":47,"use":"Y","lineNum":"1호선","lineMng":1,"lineCode":"1001","stationCode":"1814","stationNum":"147","stationName":"소사","stationSub":"/","stationNmEng":"Sosa","platform":"양쪽","lavatory":"바깥","cross":"연결됨","posLat":"37.4827680758" ,"posLng":"126.7956734663" },
{"idx":48,"use":"Y","lineNum":"1호선","lineMng":1,"lineCode":"1001","stationCode":"1804","stationNum":"148","stationName":"부천","stationSub":"/","stationNmEng":"Bucheon","platform":"양쪽","lavatory":"바깥","cross":"연결됨","posLat":"37.4840870433" ,"posLng":"126.7828076302" },
{"idx":49,"use":"Y","lineNum":"1호선","lineMng":1,"lineCode":"1001","stationCode":"1822","stationNum":"149","stationName":"중동","stationSub":"/","stationNmEng":"Jung-dong","platform":"양쪽","lavatory":"바깥","cross":"연결됨","posLat":"37.4866134060" ,"posLng":"126.7648898328" },
{"idx":50,"use":"Y","lineNum":"1호선","lineMng":1,"lineCode":"1001","stationCode":"1805","stationNum":"150","stationName":"송내","stationSub":"/","stationNmEng":"Songnae","platform":"양쪽","lavatory":"바깥","cross":"연결됨","posLat":"37.4876335518" ,"posLng":"126.7530567752" },
{"idx":51,"use":"Y","lineNum":"1호선","lineMng":1,"lineCode":"1001","stationCode":"1815","stationNum":"151","stationName":"부개","stationSub":"/","stationNmEng":"Bugae","platform":"양쪽","lavatory":"바깥","cross":"연결됨","posLat":"37.4884610363" ,"posLng":"126.7410117954" },
{"idx":52,"use":"Y","lineNum":"1호선","lineMng":1,"lineCode":"1001","stationCode":"1806","stationNum":"152","stationName":"부평","stationSub":"/","stationNmEng":"Bupyeong","platform":"양쪽","lavatory":"바깥","cross":"연결됨","posLat":"37.4895075158" ,"posLng":"126.7243153963" },
{"idx":53,"use":"Y","lineNum":"1호선","lineMng":1,"lineCode":"1001","stationCode":"1807","stationNum":"153","stationName":"백운","stationSub":"/","stationNmEng":"Baegun","platform":"양쪽","lavatory":"바깥","cross":"연결됨","posLat":"37.4833116537" ,"posLng":"126.7071891660" },
{"idx":54,"use":"Y","lineNum":"1호선","lineMng":1,"lineCode":"1001","stationCode":"1808","stationNum":"154","stationName":"동암","stationSub":"/","stationNmEng":"Dongam","platform":"양쪽","lavatory":"바깥","cross":"연결됨","posLat":"37.4715156486" ,"posLng":"126.7029380087" },
{"idx":55,"use":"Y","lineNum":"1호선","lineMng":1,"lineCode":"1001","stationCode":"1816","stationNum":"155","stationName":"간석","stationSub":"/","stationNmEng":"Ganseok","platform":"양쪽","lavatory":"안쪽","cross":"연결됨","posLat":"37.4647077561" ,"posLng":"126.6934697904" },
{"idx":56,"use":"Y","lineNum":"1호선","lineMng":1,"lineCode":"1001","stationCode":"1809","stationNum":"156","stationName":"주안","stationSub":"/","stationNmEng":"Juan","platform":"양쪽","lavatory":"안쪽","cross":"연결됨","posLat":"37.4650450232" ,"posLng":"126.6800235230" },
{"idx":57,"use":"Y","lineNum":"1호선","lineMng":1,"lineCode":"1001","stationCode":"1823","stationNum":"157","stationName":"도화","stationSub":"/","stationNmEng":"Dohwa","platform":"양쪽","lavatory":"바깥","cross":"연결됨","posLat":"37.4661172541" ,"posLng":"126.6687684110" },
{"idx":58,"use":"Y","lineNum":"1호선","lineMng":1,"lineCode":"1001","stationCode":"1810","stationNum":"158","stationName":"제물포","stationSub":"/","stationNmEng":"Jemulpo","platform":"양쪽","lavatory":"안쪽","cross":"연결됨","posLat":"37.4668242189" ,"posLng":"126.6571803903" },
{"idx":59,"use":"Y","lineNum":"1호선","lineMng":1,"lineCode":"1001","stationCode":"1817","stationNum":"159","stationName":"도원","stationSub":"/","stationNmEng":"Dowon","platform":"양쪽","lavatory":"안쪽","cross":"연결됨","posLat":"37.4686037416" ,"posLng":"126.6425771556" },
{"idx":60,"use":"Y","lineNum":"1호선","lineMng":1,"lineCode":"1001","stationCode":"1811","stationNum":"160","stationName":"동인천","stationSub":"/","stationNmEng":"Dongincheon","platform":"양쪽","lavatory":"없음","cross":"연결됨","posLat":"37.4754269212" ,"posLng":"126.6326181183" },
{"idx":61,"use":"Y","lineNum":"1호선","lineMng":1,"lineCode":"1001","stationCode":"1812","stationNum":"161","stationName":"인천","stationSub":"/","stationNmEng":"Incheon","platform":"중앙","lavatory":"바깥","cross":"연결됨","posLat":"37.4763800599" ,"posLng":"126.6169538328" },
{"idx":62,"use":"Y","lineNum":"1호선","lineMng":1,"lineCode":"1001","stationCode":"1750","stationNum":"K410","stationName":"광명","stationSub":"/","stationNmEng":"Gwangmyeong","platform":"양쪽","lavatory":"바깥","cross":"연결됨","posLat":"37.4164487655" ,"posLng":"126.8846130023" },
{"idx":63,"use":"Y","lineNum":"1호선","lineMng":1,"lineCode":"1001","stationCode":"1702","stationNum":"P142","stationName":"가산디지털단지","stationSub":"/","stationNmEng":"Gasan Digital Complex","platform":"양쪽","lavatory":"바깥","cross":"연결됨","posLat":"37.4814411756" ,"posLng":"126.8826537826" },
{"idx":64,"use":"Y","lineNum":"1호선","lineMng":1,"lineCode":"1001","stationCode":"1714","stationNum":"P143","stationName":"독산","stationSub":"/","stationNmEng":"Doksan","platform":"양쪽","lavatory":"바깥","cross":"연결됨","posLat":"37.4662045023" ,"posLng":"126.8893577095" },
{"idx":65,"use":"Y","lineNum":"1호선","lineMng":1,"lineCode":"1001","stationCode":"1703","stationNum":"P144","stationName":"금천구청","stationSub":"/","stationNmEng":"Geumcheon-gu Office","platform":"양쪽","lavatory":"바깥","cross":"연결됨","posLat":"37.4560825001" ,"posLng":"126.8938249140" },
{"idx":66,"use":"Y","lineNum":"1호선","lineMng":1,"lineCode":"1001","stationCode":"1704","stationNum":"P145","stationName":"석수","stationSub":"/","stationNmEng":"Seoksu","platform":"양쪽","lavatory":"안쪽","cross":"연결됨","posLat":"37.4351663695" ,"posLng":"126.9022456263" },
{"idx":67,"use":"Y","lineNum":"1호선","lineMng":1,"lineCode":"1001","stationCode":"1705","stationNum":"P146","stationName":"관악","stationSub":"/","stationNmEng":"Gwanak","platform":"양쪽","lavatory":"안쪽","cross":"연결됨","posLat":"37.4195099492" ,"posLng":"126.9085180066" },
{"idx":68,"use":"Y","lineNum":"1호선","lineMng":1,"lineCode":"1001","stationCode":"1706","stationNum":"P147","stationName":"안양","stationSub":"/","stationNmEng":"Anyang","platform":"양쪽","lavatory":"바깥","cross":"연결됨","posLat":"37.4019427272" ,"posLng":"126.9226650483" },
{"idx":69,"use":"Y","lineNum":"1호선","lineMng":1,"lineCode":"1001","stationCode":"1707","stationNum":"P148","stationName":"명학","stationSub":"/","stationNmEng":"Myeonghak","platform":"양쪽","lavatory":"안쪽","cross":"연결됨","posLat":"37.3848750267" ,"posLng":"126.9354432949" },
{"idx":70,"use":"Y","lineNum":"1호선","lineMng":1,"lineCode":"1001","stationCode":"1708","stationNum":"P149","stationName":"금정","stationSub":"/","stationNmEng":"Geumjeong","platform":"양쪽","lavatory":"안쪽","cross":"연결됨","posLat":"37.3722698956" ,"posLng":"126.9435808759" },
{"idx":71,"use":"Y","lineNum":"1호선","lineMng":1,"lineCode":"1001","stationCode":"1709","stationNum":"P150","stationName":"군포","stationSub":"/","stationNmEng":"Gunpo","platform":"양쪽","lavatory":"안쪽","cross":"연결됨","posLat":"37.3535625542" ,"posLng":"126.9485157805" },
{"idx":72,"use":"Y","lineNum":"1호선","lineMng":1,"lineCode":"1001","stationCode":"1729","stationNum":"P151","stationName":"당정","stationSub":"/","stationNmEng":"Dangjeong","platform":"양쪽","lavatory":"바깥","cross":"연결됨","posLat":"37.3442803575" ,"posLng":"126.9483854759" },
{"idx":73,"use":"Y","lineNum":"1호선","lineMng":1,"lineCode":"1001","stationCode":"1710","stationNum":"P152","stationName":"의왕","stationSub":"/","stationNmEng":"Uiwang","platform":"양쪽","lavatory":"바깥","cross":"연결됨","posLat":"37.3206608111" ,"posLng":"126.9481162687" },
{"idx":74,"use":"Y","lineNum":"1호선","lineMng":1,"lineCode":"1001","stationCode":"1711","stationNum":"P153","stationName":"성균관대","stationSub":"/","stationNmEng":"Sungkyunkwan Univ.","platform":"양쪽","lavatory":"안쪽","cross":"연결됨","posLat":"37.3003688929" ,"posLng":"126.9707320731" },
{"idx":75,"use":"Y","lineNum":"1호선","lineMng":1,"lineCode":"1001","stationCode":"1712","stationNum":"P154","stationName":"화서","stationSub":"/","stationNmEng":"Hwaseo","platform":"양쪽","lavatory":"안쪽","cross":"연결됨","posLat":"37.2846419765" ,"posLng":"126.9892263915" },
{"idx":76,"use":"Y","lineNum":"1호선","lineMng":1,"lineCode":"1001","stationCode":"1713","stationNum":"P155","stationName":"수원","stationSub":"/","stationNmEng":"Suwon","platform":"중앙","lavatory":"바깥","cross":"연결됨","posLat":"37.2664047844" ,"posLng":"126.9999438913" },
{"idx":77,"use":"Y","lineNum":"1호선","lineMng":1,"lineCode":"1001","stationCode":"1715","stationNum":"P156","stationName":"세류","stationSub":"/","stationNmEng":"Seryu","platform":"기타","lavatory":"없음","cross":"연결됨","posLat":"37.2439219715" ,"posLng":"127.0138562115" },
{"idx":78,"use":"Y","lineNum":"1호선","lineMng":1,"lineCode":"1001","stationCode":"1716","stationNum":"P157","stationName":"병점","stationSub":"/","stationNmEng":"Byeongjeom","platform":"기타","lavatory":"없음","cross":"연결됨","posLat":"37.2074676921" ,"posLng":"127.0329524100" },
{"idx":79,"use":"Y","lineNum":"1호선","lineMng":1,"lineCode":"1001","stationCode":"1749","stationNum":"P157-1","stationName":"서동탄","stationSub":"/","stationNmEng":"Seodongtan","platform":"중앙","lavatory":"바깥","cross":"연결됨","posLat":"37.1955435713" ,"posLng":"127.0516110639" },
{"idx":80,"use":"Y","lineNum":"1호선","lineMng":1,"lineCode":"1001","stationCode":"1717","stationNum":"P158","stationName":"세마","stationSub":"/","stationNmEng":"Sema","platform":"양쪽","lavatory":"바깥","cross":"연결됨","posLat":"37.1874927005" ,"posLng":"127.0432532319" },
{"idx":81,"use":"Y","lineNum":"1호선","lineMng":1,"lineCode":"1001","stationCode":"1718","stationNum":"P159","stationName":"오산대","stationSub":"/","stationNmEng":"Osan College","platform":"양쪽","lavatory":"바깥","cross":"연결됨","posLat":"37.1694125758" ,"posLng":"127.0630847794" },
{"idx":82,"use":"Y","lineNum":"1호선","lineMng":1,"lineCode":"1001","stationCode":"1719","stationNum":"P160","stationName":"오산","stationSub":"/","stationNmEng":"Osan","platform":"양쪽","lavatory":"안쪽","cross":"연결됨","posLat":"37.1454807523" ,"posLng":"127.0667228323" },
{"idx":83,"use":"Y","lineNum":"1호선","lineMng":1,"lineCode":"1001","stationCode":"1720","stationNum":"P161","stationName":"진위","stationSub":"/","stationNmEng":"Jinwi","platform":"양쪽","lavatory":"바깥","cross":"연결됨","posLat":"37.1097802801" ,"posLng":"127.0623561412" },
{"idx":84,"use":"Y","lineNum":"1호선","lineMng":1,"lineCode":"1001","stationCode":"1721","stationNum":"P162","stationName":"송탄","stationSub":"/","stationNmEng":"Songtan","platform":"양쪽","lavatory":"바깥","cross":"연결됨","posLat":"37.0755376910" ,"posLng":"127.0543876281" },
{"idx":85,"use":"Y","lineNum":"1호선","lineMng":1,"lineCode":"1001","stationCode":"1722","stationNum":"P163","stationName":"서정리","stationSub":"/","stationNmEng":"Seojeong-ri","platform":"양쪽","lavatory":"안쪽","cross":"연결됨","posLat":"37.0564666968" ,"posLng":"127.0528475301" },
{"idx":86,"use":"Y","lineNum":"1호선","lineMng":1,"lineCode":"1001","stationCode":"1723","stationNum":"P164","stationName":"지제","stationSub":"/","stationNmEng":"Jije","platform":"양쪽","lavatory":"바깥","cross":"연결됨","posLat":"37.0191350861" ,"posLng":"127.0702235036" },
{"idx":87,"use":"Y","lineNum":"1호선","lineMng":1,"lineCode":"1001","stationCode":"1724","stationNum":"P165","stationName":"평택","stationSub":"/","stationNmEng":"Pyeongtaek","platform":"양쪽","lavatory":"안쪽","cross":"연결됨","posLat":"36.9905620547" ,"posLng":"127.0855679224" },
{"idx":88,"use":"Y","lineNum":"1호선","lineMng":1,"lineCode":"1001","stationCode":"1725","stationNum":"P166","stationName":"성환","stationSub":"/","stationNmEng":"Seonghwan","platform":"양쪽","lavatory":"안쪽","cross":"연결됨","posLat":"36.9158713626" ,"posLng":"127.1270069809" },
{"idx":89,"use":"Y","lineNum":"1호선","lineMng":1,"lineCode":"1001","stationCode":"1726","stationNum":"P167","stationName":"직산","stationSub":"/","stationNmEng":"Jiksan","platform":"양쪽","lavatory":"안쪽","cross":"연결됨","posLat":"36.8709265518" ,"posLng":"127.1437813927" },
{"idx":90,"use":"Y","lineNum":"1호선","lineMng":1,"lineCode":"1001","stationCode":"1727","stationNum":"P168","stationName":"두정","stationSub":"/","stationNmEng":"Dujeong","platform":"양쪽","lavatory":"안쪽","cross":"연결됨","posLat":"36.8336019134" ,"posLng":"127.1490063099" },
{"idx":91,"use":"Y","lineNum":"1호선","lineMng":1,"lineCode":"1001","stationCode":"1728","stationNum":"P169","stationName":"천안","stationSub":"/","stationNmEng":"Cheonan","platform":"양쪽","lavatory":"안쪽","cross":"연결됨","posLat":"36.8099761886" ,"posLng":"127.1468802666" },
{"idx":92,"use":"Y","lineNum":"1호선","lineMng":1,"lineCode":"1001","stationCode":"1401","stationNum":"P170","stationName":"봉명","stationSub":"/","stationNmEng":"Bongmyeong","platform":"양쪽","lavatory":"바깥","cross":"연결됨","posLat":"36.8015367537" ,"posLng":"127.1362494855" },
{"idx":93,"use":"Y","lineNum":"1호선","lineMng":1,"lineCode":"1001","stationCode":"1402","stationNum":"P171","stationName":"쌍용","stationSub":"/","stationNmEng":"Ssangyong","platform":"양쪽","lavatory":"바깥","cross":"연결됨","posLat":"36.7937499757" ,"posLng":"127.1213669429" },
{"idx":94,"use":"Y","lineNum":"1호선","lineMng":1,"lineCode":"1001","stationCode":"1403","stationNum":"P172","stationName":"아산","stationSub":"/","stationNmEng":"Asan","platform":"양쪽","lavatory":"바깥","cross":"연결됨","posLat":"36.7922046587" ,"posLng":"127.1050480748" },
{"idx":95,"use":"Y","lineNum":"1호선","lineMng":1,"lineCode":"1001","stationCode":"1405","stationNum":"P173","stationName":"배방","stationSub":"/","stationNmEng":"Baebang","platform":"양쪽","lavatory":"바깥","cross":"연결됨","posLat":"36.7783799212" ,"posLng":"127.0547629005" },
{"idx":96,"use":"Y","lineNum":"1호선","lineMng":1,"lineCode":"1001","stationCode":"1407","stationNum":"P174","stationName":"온양온천","stationSub":"/","stationNmEng":"Onyang oncheon","platform":"양쪽","lavatory":"바깥","cross":"연결됨","posLat":"36.7806078539" ,"posLng":"127.0030563353" },
{"idx":97,"use":"Y","lineNum":"1호선","lineMng":1,"lineCode":"1001","stationCode":"1408","stationNum":"P175","stationName":"신창","stationSub":"/","stationNmEng":"Sinchang","platform":"양쪽","lavatory":"바깥","cross":"연결됨","posLat":"36.7697589364" ,"posLng":"126.9517377102" },
{"idx":98,"use":"Y","lineNum":"2호선","lineMng":2,"lineCode":"1002","stationCode":"0201","stationNum":"201","stationName":"시청","stationSub":"/","stationNmEng":"City Hall","platform":"중앙","lavatory":"안쪽","cross":"연결됨","posLat":"37.5654400000" ,"posLng":"126.9771190000" },
{"idx":99,"use":"Y","lineNum":"2호선","lineMng":2,"lineCode":"1002","stationCode":"0202","stationNum":"202","stationName":"을지로입구","stationSub":"/","stationNmEng":"Euljiro 1(il)-ga","platform":"양쪽","lavatory":"바깥","cross":"연결안됨","posLat":"37.5660475257" ,"posLng":"126.9822718867" },
{"idx":100,"use":"Y","lineNum":"2호선","lineMng":2,"lineCode":"1002","stationCode":"0203","stationNum":"203","stationName":"을지로3가","stationSub":"/","stationNmEng":"Euljiro 3(sam)-ga","platform":"양쪽","lavatory":"바깥","cross":"연결안됨","posLat":"37.5662931211" ,"posLng":"126.9909506521" },
{"idx":101,"use":"Y","lineNum":"2호선","lineMng":2,"lineCode":"1002","stationCode":"0204","stationNum":"204","stationName":"을지로4가","stationSub":"/","stationNmEng":"Euljiro 4(sa)-ga","platform":"양쪽","lavatory":"바깥","cross":"연결됨","posLat":"37.5666203093" ,"posLng":"126.9976361377" },
{"idx":102,"use":"Y","lineNum":"2호선","lineMng":2,"lineCode":"1002","stationCode":"0205","stationNum":"205","stationName":"동대문역사문화공원","stationSub":"/","stationNmEng":"Dongdaemun History & Culture Park","platform":"중앙","lavatory":"안쪽","cross":"연결됨","posLat":"37.5656795542" ,"posLng":"127.0089568888" },
{"idx":103,"use":"Y","lineNum":"2호선","lineMng":2,"lineCode":"1002","stationCode":"0206","stationNum":"206","stationName":"신당","stationSub":"/","stationNmEng":"Sindang","platform":"중앙","lavatory":"안쪽","cross":"연결됨","posLat":"37.5656772293" ,"posLng":"127.0194840465" },
{"idx":104,"use":"Y","lineNum":"2호선","lineMng":2,"lineCode":"1002","stationCode":"0207","stationNum":"207","stationName":"상왕십리","stationSub":"/","stationNmEng":"Sangwangsimni","platform":"양쪽","lavatory":"바깥","cross":"연결됨","posLat":"37.5645114585" ,"posLng":"127.0288943437" },
{"idx":105,"use":"Y","lineNum":"2호선","lineMng":2,"lineCode":"1002","stationCode":"0208","stationNum":"208","stationName":"왕십리","stationSub":"/","stationNmEng":"Wangsimni","platform":"양쪽","lavatory":"바깥","cross":"연결됨","posLat":"37.5612650981" ,"posLng":"127.0373915960" },
{"idx":106,"use":"Y","lineNum":"2호선","lineMng":2,"lineCode":"1002","stationCode":"0209","stationNum":"209","stationName":"한양대","stationSub":"/","stationNmEng":"Hanyang Univ.","platform":"양쪽","lavatory":"바깥","cross":"연결안됨","posLat":"37.5557384311" ,"posLng":"127.0436535432" },
{"idx":107,"use":"Y","lineNum":"2호선","lineMng":2,"lineCode":"1002","stationCode":"0210","stationNum":"210","stationName":"뚝섬","stationSub":"/","stationNmEng":"Ttukseom","platform":"중앙","lavatory":"안쪽","cross":"연결됨","posLat":"37.5472441615" ,"posLng":"127.0473266898" },
{"idx":108,"use":"Y","lineNum":"2호선","lineMng":2,"lineCode":"1002","stationCode":"0211","stationNum":"211","stationName":"성수","stationSub":"/","stationNmEng":"Seongsu","platform":"양쪽","lavatory":"바깥","cross":"연결됨","posLat":"37.5445744870" ,"posLng":"127.0559949759" },
{"idx":109,"use":"Y","lineNum":"2호선","lineMng":2,"lineCode":"1002","stationCode":"0212","stationNum":"212","stationName":"건대입구","stationSub":"화양","stationNmEng":"Konkuk Univ.","platform":"양쪽","lavatory":"안쪽","cross":"연결됨","posLat":"37.5404085946" ,"posLng":"127.0692528596" },
{"idx":110,"use":"Y","lineNum":"2호선","lineMng":2,"lineCode":"1002","stationCode":"0213","stationNum":"213","stationName":"구의","stationSub":"/","stationNmEng":"Guui","platform":"양쪽","lavatory":"안쪽","cross":"연결됨","posLat":"37.5371524340" ,"posLng":"127.0861529678" },
{"idx":111,"use":"Y","lineNum":"2호선","lineMng":2,"lineCode":"1002","stationCode":"0214","stationNum":"214","stationName":"강변","stationSub":"/","stationNmEng":"Gangbyeon","platform":"양쪽","lavatory":"바깥","cross":"연결됨","posLat":"37.5351546469" ,"posLng":"127.0946861449" },
{"idx":112,"use":"Y","lineNum":"2호선","lineMng":2,"lineCode":"1002","stationCode":"0215","stationNum":"215","stationName":"잠실나루","stationSub":"성내","stationNmEng":"Jamsillaru","platform":"양쪽","lavatory":"바깥","cross":"연결됨","posLat":"37.5203222339" ,"posLng":"127.1040170917" },
{"idx":113,"use":"Y","lineNum":"2호선","lineMng":2,"lineCode":"1002","stationCode":"0216","stationNum":"216","stationName":"잠실","stationSub":"/","stationNmEng":"Jamsil","platform":"양쪽","lavatory":"바깥","cross":"연결됨","posLat":"37.5133647115" ,"posLng":"127.1002768052" },
{"idx":114,"use":"Y","lineNum":"2호선","lineMng":2,"lineCode":"1002","stationCode":"0217","stationNum":"217","stationName":"신천","stationSub":"/","stationNmEng":"Sincheon","platform":"양쪽","lavatory":"바깥","cross":"연결됨","posLat":"37.5115928548" ,"posLng":"127.0865886453" },
{"idx":115,"use":"Y","lineNum":"2호선","lineMng":2,"lineCode":"1002","stationCode":"0218","stationNum":"218","stationName":"종합운동장","stationSub":"/","stationNmEng":"Sports Complex","platform":"양쪽","lavatory":"바깥","cross":"연결됨","posLat":"37.5110608360" ,"posLng":"127.0737907360" },
{"idx":116,"use":"Y","lineNum":"2호선","lineMng":2,"lineCode":"1002","stationCode":"0219","stationNum":"219","stationName":"삼성","stationSub":"/","stationNmEng":"Samseong","platform":"중앙","lavatory":"바깥","cross":"연결됨","posLat":"37.5088315591" ,"posLng":"127.0630275983" },
{"idx":117,"use":"Y","lineNum":"2호선","lineMng":2,"lineCode":"1002","stationCode":"0220","stationNum":"220","stationName":"선릉","stationSub":"/","stationNmEng":"Seolleung","platform":"양쪽","lavatory":"바깥","cross":"연결안됨","posLat":"37.5044842963" ,"posLng":"127.0489553128" },
{"idx":118,"use":"Y","lineNum":"2호선","lineMng":2,"lineCode":"1002","stationCode":"0221","stationNum":"221","stationName":"역삼","stationSub":"/","stationNmEng":"Yeoksam","platform":"양쪽","lavatory":"안쪽","cross":"연결됨","posLat":"37.5006433502" ,"posLng":"127.0364049686" },
{"idx":119,"use":"Y","lineNum":"2호선","lineMng":2,"lineCode":"1002","stationCode":"0222","stationNum":"222","stationName":"강남","stationSub":"/","stationNmEng":"Gangnam","platform":"양쪽","lavatory":"바깥","cross":"연결됨","posLat":"37.4979862552" ,"posLng":"127.0277196104" },
{"idx":120,"use":"Y","lineNum":"2호선","lineMng":2,"lineCode":"1002","stationCode":"0223","stationNum":"223","stationName":"교대","stationSub":"/","stationNmEng":"Seoul Nat'l Univ. of Education","platform":"양쪽","lavatory":"바깥","cross":"연결됨","posLat":"37.4938466738" ,"posLng":"127.0142028281" },
{"idx":121,"use":"Y","lineNum":"2호선","lineMng":2,"lineCode":"1002","stationCode":"0224","stationNum":"224","stationName":"서초","stationSub":"/","stationNmEng":"Seocho","platform":"양쪽","lavatory":"안쪽","cross":"연결됨","posLat":"37.4919478235" ,"posLng":"127.0080194669" },
{"idx":122,"use":"Y","lineNum":"2호선","lineMng":2,"lineCode":"1002","stationCode":"0225","stationNum":"225","stationName":"방배","stationSub":"/","stationNmEng":"Bangbae","platform":"양쪽","lavatory":"바깥","cross":"연결됨","posLat":"37.4814883473" ,"posLng":"126.9975405190" },
{"idx":123,"use":"Y","lineNum":"2호선","lineMng":2,"lineCode":"1002","stationCode":"0226","stationNum":"226","stationName":"사당","stationSub":"/","stationNmEng":"Sadang","platform":"양쪽","lavatory":"바깥","cross":"연결안됨","posLat":"37.4766164751" ,"posLng":"126.9809969702" },
{"idx":124,"use":"Y","lineNum":"2호선","lineMng":2,"lineCode":"1002","stationCode":"0227","stationNum":"227","stationName":"낙성대","stationSub":"/","stationNmEng":"Nakseongdae","platform":"양쪽","lavatory":"안쪽","cross":"연결됨","posLat":"37.4771216537" ,"posLng":"126.9634317800" },
{"idx":125,"use":"Y","lineNum":"2호선","lineMng":2,"lineCode":"1002","stationCode":"0228","stationNum":"228","stationName":"서울대입구","stationSub":"/","stationNmEng":"Seoul Nat'l Univ.","platform":"중앙","lavatory":"바깥","cross":"연결됨","posLat":"37.4812172512" ,"posLng":"126.9527243833" },
{"idx":126,"use":"Y","lineNum":"2호선","lineMng":2,"lineCode":"1002","stationCode":"0229","stationNum":"229","stationName":"봉천","stationSub":"/","stationNmEng":"Bongcheon","platform":"중앙","lavatory":"안쪽","cross":"연결됨","posLat":"37.4826894269" ,"posLng":"126.9409673059" },
{"idx":127,"use":"Y","lineNum":"2호선","lineMng":2,"lineCode":"1002","stationCode":"0230","stationNum":"230","stationName":"신림","stationSub":"/","stationNmEng":"Sillim","platform":"중앙","lavatory":"안쪽","cross":"연결됨","posLat":"37.4842525650" ,"posLng":"126.9294346237" },
{"idx":128,"use":"Y","lineNum":"2호선","lineMng":2,"lineCode":"1002","stationCode":"0231","stationNum":"231","stationName":"신대방","stationSub":"/","stationNmEng":"Sindaebang","platform":"양쪽","lavatory":"바깥","cross":"연결됨","posLat":"37.4875294059" ,"posLng":"126.9132972079" },
{"idx":129,"use":"Y","lineNum":"2호선","lineMng":2,"lineCode":"1002","stationCode":"0232","stationNum":"232","stationName":"구로디지털단지","stationSub":"/","stationNmEng":"Guro Digital Complex","platform":"양쪽","lavatory":"안쪽","cross":"연결됨","posLat":"37.4852578433" ,"posLng":"126.9014913878" },
{"idx":130,"use":"Y","lineNum":"2호선","lineMng":2,"lineCode":"1002","stationCode":"0233","stationNum":"233","stationName":"대림","stationSub":"/","stationNmEng":"Daerim","platform":"양쪽","lavatory":"안쪽","cross":"연결됨","posLat":"37.4933782035" ,"posLng":"126.8949267888" },
{"idx":131,"use":"Y","lineNum":"2호선","lineMng":2,"lineCode":"1002","stationCode":"0234","stationNum":"234","stationName":"신도림","stationSub":"/","stationNmEng":"Sindorim","platform":"기타","lavatory":"안쪽","cross":"연결됨","posLat":"37.5086790000" ,"posLng":"126.8910910000" },
{"idx":132,"use":"Y","lineNum":"2호선","lineMng":2,"lineCode":"1002","stationCode":"0235","stationNum":"235","stationName":"문래","stationSub":"/","stationNmEng":"Mullae","platform":"양쪽","lavatory":"바깥","cross":"연결됨","posLat":"37.5180027900" ,"posLng":"126.8948243698" },
{"idx":133,"use":"Y","lineNum":"2호선","lineMng":2,"lineCode":"1002","stationCode":"0236","stationNum":"236","stationName":"영등포구청","stationSub":"/","stationNmEng":"Yeongdeungpo-gu Office","platform":"양쪽","lavatory":"안쪽","cross":"연결됨","posLat":"37.5257868733" ,"posLng":"126.8966555793" },
{"idx":134,"use":"Y","lineNum":"2호선","lineMng":2,"lineCode":"1002","stationCode":"0237","stationNum":"237","stationName":"당산","stationSub":"/","stationNmEng":"Dangsan","platform":"양쪽","lavatory":"안쪽","cross":"연결됨","posLat":"37.5348623323" ,"posLng":"126.9026772558" },
{"idx":135,"use":"Y","lineNum":"2호선","lineMng":2,"lineCode":"1002","stationCode":"0238","stationNum":"238","stationName":"합정","stationSub":"/","stationNmEng":"Hapjeong","platform":"양쪽","lavatory":"바깥","cross":"환승역연결","posLat":"37.5499381433" ,"posLng":"126.9145431110" },
{"idx":136,"use":"Y","lineNum":"2호선","lineMng":2,"lineCode":"1002","stationCode":"0239","stationNum":"239","stationName":"홍대입구","stationSub":"/","stationNmEng":"Hongik Univ.","platform":"중앙","lavatory":"안쪽","cross":"연결됨","posLat":"37.5568435682" ,"posLng":"126.9237917974" },
{"idx":137,"use":"Y","lineNum":"2호선","lineMng":2,"lineCode":"1002","stationCode":"0240","stationNum":"240","stationName":"신촌","stationSub":"/","stationNmEng":"Sinchon","platform":"양쪽","lavatory":"바깥","cross":"연결안됨","posLat":"37.5552902399" ,"posLng":"126.9363429598" },
{"idx":138,"use":"Y","lineNum":"2호선","lineMng":2,"lineCode":"1002","stationCode":"0241","stationNum":"241","stationName":"이대","stationSub":"/","stationNmEng":"Ewha Womans Univ.","platform":"중앙","lavatory":"바깥","cross":"연결됨","posLat":"37.5568031882" ,"posLng":"126.9463153478" },
{"idx":139,"use":"Y","lineNum":"2호선","lineMng":2,"lineCode":"1002","stationCode":"0242","stationNum":"242","stationName":"아현","stationSub":"/","stationNmEng":"Ahyeon","platform":"양쪽","lavatory":"안쪽","cross":"연결됨","posLat":"37.5573945521" ,"posLng":"126.9560972573" },
{"idx":140,"use":"Y","lineNum":"2호선","lineMng":2,"lineCode":"1002","stationCode":"0243","stationNum":"243","stationName":"충정로","stationSub":"/","stationNmEng":"Chungjeongno","platform":"중앙","lavatory":"바깥","cross":"연결됨","posLat":"37.5597472653" ,"posLng":"126.9644062435" },
{"idx":141,"use":"Y","lineNum":"2호선","lineMng":2,"lineCode":"1002","stationCode":"0244","stationNum":"211-1","stationName":"용답","stationSub":"기지","stationNmEng":"Yongdap","platform":"중앙","lavatory":"바깥","cross":"연결됨","posLat":"37.5621758341" ,"posLng":"127.0508494898" },
{"idx":142,"use":"Y","lineNum":"2호선","lineMng":2,"lineCode":"1002","stationCode":"0245","stationNum":"211-2","stationName":"신답","stationSub":"/","stationNmEng":"Sindap","platform":"양쪽","lavatory":"안쪽","cross":"연결됨","posLat":"37.5706970060" ,"posLng":"127.0460322816" },
{"idx":143,"use":"Y","lineNum":"2호선","lineMng":2,"lineCode":"1002","stationCode":"0250","stationNum":"211-3","stationName":"용두","stationSub":"/","stationNmEng":"Yongdu","platform":"양쪽","lavatory":"안쪽","cross":"연결됨","posLat":"37.5739265237" ,"posLng":"127.0387118936" },
{"idx":144,"use":"Y","lineNum":"2호선","lineMng":2,"lineCode":"1002","stationCode":"0246","stationNum":"211-4","stationName":"신설동","stationSub":"/","stationNmEng":"Sinseol-dong","platform":"양쪽","lavatory":"안쪽","cross":"연결됨","posLat":"37.5747823000" ,"posLng":"127.0255814000" },
{"idx":145,"use":"Y","lineNum":"2호선","lineMng":2,"lineCode":"1002","stationCode":"0247","stationNum":"234-1","stationName":"도림천","stationSub":"/","stationNmEng":"Dorimcheon","platform":"양쪽","lavatory":"바깥","cross":"연결됨","posLat":"37.5144647309" ,"posLng":"126.8826825448" },
{"idx":146,"use":"Y","lineNum":"2호선","lineMng":2,"lineCode":"1002","stationCode":"0248","stationNum":"234-2","stationName":"양천구청","stationSub":"/","stationNmEng":"Yangcheon-gu Office","platform":"양쪽","lavatory":"안쪽","cross":"연결됨","posLat":"37.5127445285" ,"posLng":"126.8666686545" },
{"idx":147,"use":"Y","lineNum":"2호선","lineMng":2,"lineCode":"1002","stationCode":"0249","stationNum":"234-3","stationName":"신정네거리","stationSub":"/","stationNmEng":"Sinjeongnegeori","platform":"양쪽","lavatory":"바깥","cross":"연결됨","posLat":"37.5202336979" ,"posLng":"126.8528108660" },
{"idx":148,"use":"Y","lineNum":"2호선","lineMng":3,"lineCode":"1002","stationCode":"0251","stationNum":"234-4","stationName":"까치산","stationSub":"/","stationNmEng":"Kkachisan","platform":"중앙","lavatory":"바깥","cross":"연결됨","posLat":"37.5314304154" ,"posLng":"126.8469259429" },
{"idx":149,"use":"Y","lineNum":"3호선","lineMng":1,"lineCode":"1003","stationCode":"1958","stationNum":"310","stationName":"대화","stationSub":"/","stationNmEng":"Daehwa","platform":"중앙","lavatory":"바깥","cross":"연결됨","posLat":"37.6761578458" ,"posLng":"126.7474404300" },
{"idx":150,"use":"Y","lineNum":"3호선","lineMng":1,"lineCode":"1003","stationCode":"1957","stationNum":"311","stationName":"주엽","stationSub":"/","stationNmEng":"Juyeop","platform":"양쪽","lavatory":"바깥","cross":"연결됨","posLat":"37.6701497317" ,"posLng":"126.7612567733" },
{"idx":151,"use":"Y","lineNum":"3호선","lineMng":2,"lineCode":"1003","stationCode":"1956","stationNum":"312","stationName":"정발산","stationSub":"/","stationNmEng":"Jeongbalsan","platform":"양쪽","lavatory":"바깥","cross":"연결됨","posLat":"37.6595004376" ,"posLng":"126.7734017157" },
{"idx":152,"use":"Y","lineNum":"3호선","lineMng":1,"lineCode":"1003","stationCode":"1955","stationNum":"313","stationName":"마두","stationSub":"/","stationNmEng":"Madu","platform":"중앙","lavatory":"바깥","cross":"연결됨","posLat":"37.6521923127" ,"posLng":"126.7776581262" },
{"idx":153,"use":"Y","lineNum":"3호선","lineMng":1,"lineCode":"1003","stationCode":"1954","stationNum":"314","stationName":"백석","stationSub":"/","stationNmEng":"Baekseok","platform":"중앙","lavatory":"바깥","cross":"연결됨","posLat":"37.6429837641" ,"posLng":"126.7881314047" },
{"idx":154,"use":"Y","lineNum":"3호선","lineMng":1,"lineCode":"1003","stationCode":"1953","stationNum":"315","stationName":"대곡","stationSub":"/","stationNmEng":"Daegok","platform":"양쪽","lavatory":"바깥","cross":"연결됨","posLat":"37.6316385474" ,"posLng":"126.8110420076" },
{"idx":155,"use":"Y","lineNum":"3호선","lineMng":1,"lineCode":"1003","stationCode":"1952","stationNum":"316","stationName":"화정","stationSub":"/","stationNmEng":"Hwajeong","platform":"양쪽","lavatory":"바깥","cross":"연결됨","posLat":"37.6346023698" ,"posLng":"126.8326686611" },
{"idx":156,"use":"Y","lineNum":"3호선","lineMng":1,"lineCode":"1003","stationCode":"1951","stationNum":"317","stationName":"원당","stationSub":"/","stationNmEng":"Wondang","platform":"양쪽","lavatory":"바깥","cross":"연결됨","posLat":"37.6533373877" ,"posLng":"126.8430284302" },
{"idx":157,"use":"Y","lineNum":"3호선","lineMng":1,"lineCode":"1003","stationCode":"1948","stationNum":"309","stationName":"원흥","stationSub":"/","stationNmEng":"Wonheung","platform":"양쪽","lavatory":"바깥","cross":"연결됨","posLat":"37.6489550000" ,"posLng":"126.8726420000" },
{"idx":158,"use":"Y","lineNum":"3호선","lineMng":1,"lineCode":"1003","stationCode":"1950","stationNum":"318","stationName":"삼송","stationSub":"/","stationNmEng":"Samsong","platform":"양쪽","lavatory":"바깥","cross":"연결안됨","posLat":"37.6531632643" ,"posLng":"126.8954218581" },
{"idx":159,"use":"Y","lineNum":"3호선","lineMng":2,"lineCode":"1003","stationCode":"0309","stationNum":"319","stationName":"지축","stationSub":"/","stationNmEng":"Jichuk","platform":"중앙","lavatory":"없음","cross":"연결됨","posLat":"37.6481254542" ,"posLng":"126.9137633978" },
{"idx":160,"use":"Y","lineNum":"3호선","lineMng":2,"lineCode":"1003","stationCode":"0310","stationNum":"320","stationName":"구파발","stationSub":"/","stationNmEng":"Gupabal","platform":"중앙","lavatory":"안쪽","cross":"연결됨","posLat":"37.6365939241" ,"posLng":"126.9188483774" },
{"idx":161,"use":"Y","lineNum":"3호선","lineMng":2,"lineCode":"1003","stationCode":"0311","stationNum":"321","stationName":"연신내","stationSub":"/","stationNmEng":"Yeonsinnae","platform":"중앙","lavatory":"안쪽","cross":"연결됨","posLat":"37.6190543600" ,"posLng":"126.9211976863" },
{"idx":162,"use":"Y","lineNum":"3호선","lineMng":2,"lineCode":"1003","stationCode":"0312","stationNum":"322","stationName":"불광","stationSub":"/","stationNmEng":"Bulgwang","platform":"양쪽","lavatory":"안쪽","cross":"연결됨","posLat":"37.6100812247" ,"posLng":"126.9302408229" },
{"idx":163,"use":"Y","lineNum":"3호선","lineMng":2,"lineCode":"1003","stationCode":"0313","stationNum":"323","stationName":"녹번","stationSub":"/","stationNmEng":"Nokbeon","platform":"중앙","lavatory":"바깥","cross":"연결됨","posLat":"37.6008775867" ,"posLng":"126.9357743614" },
{"idx":164,"use":"Y","lineNum":"3호선","lineMng":2,"lineCode":"1003","stationCode":"0314","stationNum":"324","stationName":"홍제","stationSub":"/","stationNmEng":"Hongje","platform":"양쪽","lavatory":"안쪽","cross":"연결됨","posLat":"37.5887974006" ,"posLng":"126.9441099997" },
{"idx":165,"use":"Y","lineNum":"3호선","lineMng":2,"lineCode":"1003","stationCode":"0315","stationNum":"325","stationName":"무악재","stationSub":"/","stationNmEng":"Muakjae","platform":"양쪽","lavatory":"안쪽","cross":"연결됨","posLat":"37.5826704146" ,"posLng":"126.9501857713" },
{"idx":166,"use":"Y","lineNum":"3호선","lineMng":2,"lineCode":"1003","stationCode":"0316","stationNum":"326","stationName":"독립문","stationSub":"/","stationNmEng":"Dongnimmun","platform":"양쪽","lavatory":"안쪽","cross":"연결됨","posLat":"37.5744673232" ,"posLng":"126.9579196684" },
{"idx":167,"use":"Y","lineNum":"3호선","lineMng":2,"lineCode":"1003","stationCode":"0317","stationNum":"327","stationName":"경복궁","stationSub":"/","stationNmEng":"Gyeongbokgung","platform":"중앙","lavatory":"안쪽","cross":"연결됨","posLat":"37.5758397565" ,"posLng":"126.9736933434" },
{"idx":168,"use":"Y","lineNum":"3호선","lineMng":2,"lineCode":"1003","stationCode":"0318","stationNum":"328","stationName":"안국","stationSub":"/","stationNmEng":"Anguk","platform":"중앙","lavatory":"바깥","cross":"연결됨","posLat":"37.5765633218" ,"posLng":"126.9854913416" },
{"idx":169,"use":"Y","lineNum":"3호선","lineMng":2,"lineCode":"1003","stationCode":"0319","stationNum":"329","stationName":"종로3가","stationSub":"/","stationNmEng":"Jongno 3(sam)-ga","platform":"중앙","lavatory":"안쪽","cross":"연결됨","posLat":"37.5703335000" ,"posLng":"126.9923763000" },
{"idx":170,"use":"Y","lineNum":"3호선","lineMng":2,"lineCode":"1003","stationCode":"0320","stationNum":"330","stationName":"을지로3가","stationSub":"/","stationNmEng":"Euljiro 3(sam)-ga","platform":"중앙","lavatory":"안쪽","cross":"연결됨","posLat":"37.5662704000" ,"posLng":"126.9922956000" },
{"idx":171,"use":"Y","lineNum":"3호선","lineMng":2,"lineCode":"1003","stationCode":"0321","stationNum":"331","stationName":"충무로","stationSub":"/","stationNmEng":"Chungmuro","platform":"중앙","lavatory":"안쪽","cross":"연결됨","posLat":"37.5616129826" ,"posLng":"126.9936849414" },
{"idx":172,"use":"Y","lineNum":"3호선","lineMng":2,"lineCode":"1003","stationCode":"0322","stationNum":"332","stationName":"동대입구","stationSub":"/","stationNmEng":"Dongguk Univ","platform":"중앙","lavatory":"안쪽","cross":"연결됨","posLat":"37.5590505154" ,"posLng":"127.0049812416" },
{"idx":173,"use":"Y","lineNum":"3호선","lineMng":2,"lineCode":"1003","stationCode":"0323","stationNum":"333","stationName":"약수","stationSub":"/","stationNmEng":"Yaksu","platform":"중앙","lavatory":"안쪽","cross":"연결됨","posLat":"37.5544598361" ,"posLng":"127.0109048131" },
{"idx":174,"use":"Y","lineNum":"3호선","lineMng":2,"lineCode":"1003","stationCode":"0324","stationNum":"334","stationName":"금호","stationSub":"/","stationNmEng":"Geumho","platform":"중앙","lavatory":"안쪽","cross":"연결됨","posLat":"37.5482387598" ,"posLng":"127.0158418395" },
{"idx":175,"use":"Y","lineNum":"3호선","lineMng":2,"lineCode":"1003","stationCode":"0325","stationNum":"335","stationName":"옥수","stationSub":"/","stationNmEng":"Oksu","platform":"양쪽","lavatory":"없음","cross":"연결됨","posLat":"37.5416735924" ,"posLng":"127.0173425065" },
{"idx":176,"use":"Y","lineNum":"3호선","lineMng":2,"lineCode":"1003","stationCode":"0326","stationNum":"336","stationName":"압구정","stationSub":"/","stationNmEng":"Apgujeong","platform":"양쪽","lavatory":"안쪽","cross":"연결됨","posLat":"37.5261415548" ,"posLng":"127.0284974864" },
{"idx":177,"use":"Y","lineNum":"3호선","lineMng":2,"lineCode":"1003","stationCode":"0327","stationNum":"337","stationName":"신사","stationSub":"/","stationNmEng":"Sinsa","platform":"양쪽","lavatory":"바깥","cross":"연결됨","posLat":"37.5165612304" ,"posLng":"127.0205899501" },
{"idx":178,"use":"Y","lineNum":"3호선","lineMng":2,"lineCode":"1003","stationCode":"0328","stationNum":"338","stationName":"잠원","stationSub":"/","stationNmEng":"Jamwon","platform":"양쪽","lavatory":"안쪽","cross":"연결됨","posLat":"37.5129726173" ,"posLng":"127.0116328070" },
{"idx":179,"use":"Y","lineNum":"3호선","lineMng":2,"lineCode":"1003","stationCode":"0329","stationNum":"339","stationName":"고속터미널","stationSub":"/","stationNmEng":"Express Bus Terminal","platform":"양쪽","lavatory":"없음","cross":"연결됨","posLat":"37.5047629583" ,"posLng":"127.0050565227" },
{"idx":180,"use":"Y","lineNum":"3호선","lineMng":2,"lineCode":"1003","stationCode":"0330","stationNum":"340","stationName":"교대","stationSub":"/","stationNmEng":"Seoul Nat'l Univ. of Education","platform":"중앙","lavatory":"없음","cross":"연결됨","posLat":"37.4930444000" ,"posLng":"127.0137737000" },
{"idx":181,"use":"Y","lineNum":"3호선","lineMng":2,"lineCode":"1003","stationCode":"0331","stationNum":"341","stationName":"남부터미널","stationSub":"/","stationNmEng":"Nambu Bus Terminal","platform":"양쪽","lavatory":"안쪽","cross":"연결됨","posLat":"37.4850421114" ,"posLng":"127.0162179965" },
{"idx":182,"use":"Y","lineNum":"3호선","lineMng":2,"lineCode":"1003","stationCode":"0332","stationNum":"342","stationName":"양재","stationSub":"/","stationNmEng":"Yangjae","platform":"양쪽","lavatory":"없음","cross":"연결됨","posLat":"37.4845485103" ,"posLng":"127.0339542215" },
{"idx":183,"use":"Y","lineNum":"3호선","lineMng":2,"lineCode":"1003","stationCode":"0333","stationNum":"343","stationName":"매봉","stationSub":"/","stationNmEng":"Maebong","platform":"양쪽","lavatory":"안쪽","cross":"연결됨","posLat":"37.4870416097" ,"posLng":"127.0469372516" },
{"idx":184,"use":"Y","lineNum":"3호선","lineMng":2,"lineCode":"1003","stationCode":"0334","stationNum":"344","stationName":"도곡","stationSub":"/","stationNmEng":"Dogok","platform":"양쪽","lavatory":"바깥","cross":"연결됨","posLat":"37.4912144342" ,"posLng":"127.0560440117" },
{"idx":185,"use":"Y","lineNum":"3호선","lineMng":2,"lineCode":"1003","stationCode":"0335","stationNum":"345","stationName":"대치","stationSub":"/","stationNmEng":"Daechi","platform":"중앙","lavatory":"안쪽","cross":"연결됨","posLat":"37.4945802993" ,"posLng":"127.0634655117" },
{"idx":186,"use":"Y","lineNum":"3호선","lineMng":2,"lineCode":"1003","stationCode":"0336","stationNum":"346","stationName":"학여울","stationSub":"/","stationNmEng":"Hangnyeoul","platform":"양쪽","lavatory":"바깥","cross":"연결됨","posLat":"37.4966906910" ,"posLng":"127.0705639370" },
{"idx":187,"use":"Y","lineNum":"3호선","lineMng":2,"lineCode":"1003","stationCode":"0337","stationNum":"347","stationName":"대청","stationSub":"/","stationNmEng":"Daecheong","platform":"양쪽","lavatory":"안쪽","cross":"연결안됨","posLat":"37.4936072147" ,"posLng":"127.0795472388" },
{"idx":188,"use":"Y","lineNum":"3호선","lineMng":2,"lineCode":"1003","stationCode":"0338","stationNum":"348","stationName":"일원","stationSub":"/","stationNmEng":"Irwon","platform":"양쪽","lavatory":"바깥","cross":"연결안됨","posLat":"37.4835998492" ,"posLng":"127.0846336792" },
{"idx":189,"use":"Y","lineNum":"3호선","lineMng":2,"lineCode":"1003","stationCode":"0339","stationNum":"349","stationName":"수서","stationSub":"/","stationNmEng":"Suseo","platform":"양쪽","lavatory":"안쪽","cross":"연결됨","posLat":"37.4874733598" ,"posLng":"127.1021361083" },
{"idx":190,"use":"Y","lineNum":"3호선","lineMng":3,"lineCode":"1003","stationCode":"0340","stationNum":"350","stationName":"가락시장","stationSub":"/","stationNmEng":"Garak Market","platform":"양쪽","lavatory":"바깥","cross":"연결됨","posLat":"37.4930444000" ,"posLng":"127.0137737000" },
{"idx":191,"use":"Y","lineNum":"3호선","lineMng":2,"lineCode":"1003","stationCode":"0341","stationNum":"351","stationName":"경찰병원","stationSub":"/","stationNmEng":"National Police Hospital","platform":"양쪽","lavatory":"안쪽,바깥쪽","cross":"연결됨","posLat":"37.4957394664" ,"posLng":"127.1242255789" },
{"idx":192,"use":"Y","lineNum":"3호선","lineMng":2,"lineCode":"1003","stationCode":"0342","stationNum":"352","stationName":"오금","stationSub":"/","stationNmEng":"Ogeum","platform":"양쪽","lavatory":"바깥","cross":"연결됨","posLat":"37.5251345000" ,"posLng":"127.0072975000" },
{"idx":193,"use":"Y","lineNum":"4호선","lineMng":2,"lineCode":"1004","stationCode":"0409","stationNum":"409","stationName":"당고개","stationSub":"/","stationNmEng":"Danggogae","platform":"양쪽","lavatory":"바깥","cross":"연결됨","posLat":"37.6702713375" ,"posLng":"127.0790278301" },
{"idx":194,"use":"Y","lineNum":"4호선","lineMng":2,"lineCode":"1004","stationCode":"0410","stationNum":"410","stationName":"상계","stationSub":"/","stationNmEng":"Sanggye","platform":"양쪽","lavatory":"안쪽","cross":"연결됨","posLat":"37.6605758417" ,"posLng":"127.0732197907" },
{"idx":195,"use":"Y","lineNum":"4호선","lineMng":2,"lineCode":"1004","stationCode":"0411","stationNum":"411","stationName":"노원","stationSub":"/","stationNmEng":"Nowon","platform":"양쪽","lavatory":"안쪽","cross":"연결됨","posLat":"37.6563534648" ,"posLng":"127.0633782346" },
{"idx":196,"use":"Y","lineNum":"4호선","lineMng":2,"lineCode":"1004","stationCode":"0412","stationNum":"412","stationName":"창동","stationSub":"/","stationNmEng":"Chang-dong","platform":"양쪽","lavatory":"안쪽","cross":"연결됨","posLat":"37.6464425000" ,"posLng":"127.0435046000" },
{"idx":197,"use":"Y","lineNum":"4호선","lineMng":2,"lineCode":"1004","stationCode":"0413","stationNum":"413","stationName":"쌍문","stationSub":"/","stationNmEng":"Ssangmun","platform":"양쪽","lavatory":"안쪽","cross":"연결됨","posLat":"37.6486079222" ,"posLng":"127.0346918396" },
{"idx":198,"use":"Y","lineNum":"4호선","lineMng":2,"lineCode":"1004","stationCode":"0414","stationNum":"414","stationName":"수유","stationSub":"/","stationNmEng":"Suyu","platform":"양쪽","lavatory":"안쪽","cross":"연결됨","posLat":"37.6378734614" ,"posLng":"127.0255282411" },
{"idx":199,"use":"Y","lineNum":"4호선","lineMng":2,"lineCode":"1004","stationCode":"0415","stationNum":"415","stationName":"미아","stationSub":"/","stationNmEng":"Mia(Seoul Cyber University)","platform":"양쪽","lavatory":"바깥","cross":"연결안됨","posLat":"37.6263994283" ,"posLng":"127.0261536546" },
{"idx":200,"use":"Y","lineNum":"4호선","lineMng":2,"lineCode":"1004","stationCode":"0416","stationNum":"416","stationName":"미아사거리","stationSub":"미아삼거리","stationNmEng":"Miasageori","platform":"양쪽","lavatory":"안쪽","cross":"연결안됨","posLat":"37.6132587854" ,"posLng":"127.0301079271" },
{"idx":201,"use":"Y","lineNum":"4호선","lineMng":2,"lineCode":"1004","stationCode":"0417","stationNum":"417","stationName":"길음","stationSub":"/","stationNmEng":"Gireum","platform":"중앙","lavatory":"안쪽","cross":"연결됨","posLat":"37.6031965973" ,"posLng":"127.0249268839" },
{"idx":202,"use":"Y","lineNum":"4호선","lineMng":2,"lineCode":"1004","stationCode":"0418","stationNum":"418","stationName":"성신여대입구","stationSub":"/","stationNmEng":"Sungshin Women's Univ","platform":"양쪽","lavatory":"안쪽","cross":"연결됨","posLat":"37.5925806848" ,"posLng":"127.0160290072" },
{"idx":203,"use":"Y","lineNum":"4호선","lineMng":2,"lineCode":"1004","stationCode":"0419","stationNum":"419","stationName":"한성대입구","stationSub":"삼선교","stationNmEng":"Hansung Univ.","platform":"중앙","lavatory":"바깥","cross":"연결됨","posLat":"37.5883784035" ,"posLng":"127.0059275891" },
{"idx":204,"use":"Y","lineNum":"4호선","lineMng":2,"lineCode":"1004","stationCode":"0420","stationNum":"420","stationName":"혜화","stationSub":"/","stationNmEng":"Hyehwa","platform":"양쪽","lavatory":"바깥","cross":"연결됨","posLat":"37.5820913449" ,"posLng":"127.0019125250" },
{"idx":205,"use":"Y","lineNum":"4호선","lineMng":2,"lineCode":"1004","stationCode":"0421","stationNum":"421","stationName":"동대문","stationSub":"/","stationNmEng":"Dongdaemun","platform":"양쪽","lavatory":"안쪽","cross":"연결됨","posLat":"37.5835755000" ,"posLng":"127.0505528000" },
{"idx":206,"use":"Y","lineNum":"4호선","lineMng":2,"lineCode":"1004","stationCode":"0422","stationNum":"422","stationName":"동대문역사문화공원","stationSub":"동대문운동장","stationNmEng":"Dongdaemun History & Culture Park","platform":"중앙","lavatory":"안쪽","cross":"연결됨","posLat":"37.5647640000" ,"posLng":"127.0058330000" },
{"idx":207,"use":"Y","lineNum":"4호선","lineMng":2,"lineCode":"1004","stationCode":"0423","stationNum":"423","stationName":"충무로","stationSub":"/","stationNmEng":"Chungmuro","platform":"양쪽","lavatory":"안쪽","cross":"연결됨","posLat":"37.5616030000" ,"posLng":"126.9936720000" },
{"idx":208,"use":"Y","lineNum":"4호선","lineMng":2,"lineCode":"1004","stationCode":"0424","stationNum":"424","stationName":"명동","stationSub":"/","stationNmEng":"Myeong-dong","platform":"중앙","lavatory":"안쪽","cross":"연결됨","posLat":"37.5609747960" ,"posLng":"126.9864834647" },
{"idx":209,"use":"Y","lineNum":"4호선","lineMng":2,"lineCode":"1004","stationCode":"0425","stationNum":"425","stationName":"회현","stationSub":"/","stationNmEng":"Hoehyeon","platform":"중앙","lavatory":"안쪽","cross":"연결됨","posLat":"37.5583885010" ,"posLng":"126.9780749541" },
{"idx":210,"use":"Y","lineNum":"4호선","lineMng":2,"lineCode":"1004","stationCode":"0426","stationNum":"426","stationName":"서울역","stationSub":"/","stationNmEng":"Seoul Station","platform":"중앙","lavatory":"바깥","cross":"연결됨","posLat":"37.5545310000" ,"posLng":"126.9706630000" },
{"idx":211,"use":"Y","lineNum":"4호선","lineMng":2,"lineCode":"1004","stationCode":"0427","stationNum":"427","stationName":"숙대입구","stationSub":"/","stationNmEng":"Sookmyung Women's Univ.","platform":"양쪽","lavatory":"안쪽","cross":"연결안됨","posLat":"37.5445239708" ,"posLng":"126.9721305811" },
{"idx":212,"use":"Y","lineNum":"4호선","lineMng":2,"lineCode":"1004","stationCode":"0428","stationNum":"428","stationName":"삼각지","stationSub":"/","stationNmEng":"Samgakji","platform":"양쪽","lavatory":"안쪽","cross":"연결됨","posLat":"37.5344755977" ,"posLng":"126.9729698424" },
{"idx":213,"use":"Y","lineNum":"4호선","lineMng":2,"lineCode":"1004","stationCode":"0429","stationNum":"429","stationName":"신용산","stationSub":"/","stationNmEng":"Sinyongsan","platform":"양쪽","lavatory":"바깥","cross":"연결안됨","posLat":"37.5291964263" ,"posLng":"126.9679056083" },
{"idx":214,"use":"Y","lineNum":"4호선","lineMng":2,"lineCode":"1004","stationCode":"0430","stationNum":"430","stationName":"이촌","stationSub":"/","stationNmEng":"Ichon","platform":"양쪽","lavatory":"안쪽","cross":"연결됨","posLat":"37.5223600385" ,"posLng":"126.9744140816" },
{"idx":215,"use":"Y","lineNum":"4호선","lineMng":2,"lineCode":"1004","stationCode":"0431","stationNum":"431","stationName":"동작","stationSub":"/","stationNmEng":"Dongjak","platform":"양쪽","lavatory":"안쪽","cross":"연결됨","posLat":"37.5028228113" ,"posLng":"126.9803812528" },
{"idx":216,"use":"Y","lineNum":"4호선","lineMng":2,"lineCode":"1004","stationCode":"0432","stationNum":"432","stationName":"총신대입구","stationSub":"/","stationNmEng":"Chongshin univ.","platform":"양쪽","lavatory":"안쪽","cross":"연결됨","posLat":"37.4866644386" ,"posLng":"126.9821836667" },
{"idx":217,"use":"Y","lineNum":"4호선","lineMng":2,"lineCode":"1004","stationCode":"0433","stationNum":"433","stationName":"사당","stationSub":"/","stationNmEng":"Sadang","platform":"양쪽","lavatory":"안쪽","cross":"연결됨","posLat":"37.4765590000" ,"posLng":"126.9816330000" },
{"idx":218,"use":"Y","lineNum":"4호선","lineMng":2,"lineCode":"1004","stationCode":"0434","stationNum":"434","stationName":"남태령","stationSub":"/","stationNmEng":"Namtaeryeong","platform":"중앙","lavatory":"안쪽","cross":"연결됨","posLat":"37.4642424906" ,"posLng":"126.9891115271" },
{"idx":219,"use":"Y","lineNum":"4호선","lineMng":1,"lineCode":"1004","stationCode":"1450","stationNum":"435","stationName":"선바위","stationSub":"/","stationNmEng":"Seonbawi","platform":"양쪽","lavatory":"바깥","cross":"연결안됨","posLat":"37.4518646749" ,"posLng":"127.0021738255" },
{"idx":220,"use":"Y","lineNum":"4호선","lineMng":1,"lineCode":"1004","stationCode":"1451","stationNum":"436","stationName":"경마공원","stationSub":"/","stationNmEng":"Seoul Racecourse Park","platform":"양쪽","lavatory":"바깥","cross":"연결됨","posLat":"37.4439926324" ,"posLng":"127.0079174931" },
{"idx":221,"use":"Y","lineNum":"4호선","lineMng":1,"lineCode":"1004","stationCode":"1452","stationNum":"437","stationName":"대공원","stationSub":"/","stationNmEng":"Seoul Grand Park","platform":"양쪽","lavatory":"바깥","cross":"연결됨","posLat":"37.4360256620" ,"posLng":"127.0066552304" },
{"idx":222,"use":"Y","lineNum":"4호선","lineMng":1,"lineCode":"1004","stationCode":"1453","stationNum":"438","stationName":"과천","stationSub":"/","stationNmEng":"Gwacheon","platform":"양쪽","lavatory":"바깥","cross":"연결됨","posLat":"37.4333209612" ,"posLng":"126.9968603506" },
{"idx":223,"use":"Y","lineNum":"4호선","lineMng":1,"lineCode":"1004","stationCode":"1454","stationNum":"439","stationName":"정부과천청사","stationSub":"/","stationNmEng":"Government Complex Gwacheon","platform":"양쪽","lavatory":"바깥","cross":"연결됨","posLat":"37.4265382024" ,"posLng":"126.9897084045" },
{"idx":224,"use":"Y","lineNum":"4호선","lineMng":1,"lineCode":"1004","stationCode":"1455","stationNum":"440","stationName":"인덕원","stationSub":"/","stationNmEng":"Indeogwon","platform":"중앙","lavatory":"바깥","cross":"연결됨","posLat":"37.4015494791" ,"posLng":"126.9768625916" },
{"idx":225,"use":"Y","lineNum":"4호선","lineMng":1,"lineCode":"1004","stationCode":"1456","stationNum":"441","stationName":"평촌","stationSub":"/","stationNmEng":"Pyeongchon","platform":"양쪽","lavatory":"바깥","cross":"연결됨","posLat":"37.3943543164" ,"posLng":"126.9638935412" },
{"idx":226,"use":"Y","lineNum":"4호선","lineMng":1,"lineCode":"1004","stationCode":"1457","stationNum":"442","stationName":"범계","stationSub":"/","stationNmEng":"Beomgye","platform":"양쪽","lavatory":"바깥","cross":"연결안됨","posLat":"37.3898674334" ,"posLng":"126.9506408343" },
{"idx":227,"use":"Y","lineNum":"4호선","lineMng":1,"lineCode":"1004","stationCode":"1458","stationNum":"443","stationName":"금정","stationSub":"/","stationNmEng":"Geumjeong","platform":"양쪽","lavatory":"안쪽","cross":"연결됨","posLat":"37.3722130000" ,"posLng":"126.9434070000" },
{"idx":228,"use":"Y","lineNum":"4호선","lineMng":1,"lineCode":"1004","stationCode":"1751","stationNum":"444","stationName":"산본","stationSub":"/","stationNmEng":"Sanbon","platform":"양쪽","lavatory":"바깥","cross":"연결됨","posLat":"37.3580280586" ,"posLng":"126.9329775085" },
{"idx":229,"use":"Y","lineNum":"4호선","lineMng":1,"lineCode":"1004","stationCode":"1763","stationNum":"445","stationName":"수리산","stationSub":"/","stationNmEng":"Surisan","platform":"양쪽","lavatory":"바깥","cross":"연결됨","posLat":"37.3503108028" ,"posLng":"126.9255468945" },
{"idx":230,"use":"Y","lineNum":"4호선","lineMng":1,"lineCode":"1004","stationCode":"1752","stationNum":"446","stationName":"대야미","stationSub":"/","stationNmEng":"Daeyami","platform":"양쪽","lavatory":"바깥","cross":"연결됨","posLat":"37.3284111995" ,"posLng":"126.9172376874" },
{"idx":231,"use":"Y","lineNum":"4호선","lineMng":1,"lineCode":"1004","stationCode":"1753","stationNum":"447","stationName":"반월","stationSub":"/","stationNmEng":"Banwol","platform":"양쪽","lavatory":"바깥","cross":"연결됨","posLat":"37.3122565637" ,"posLng":"126.9036946938" },
{"idx":232,"use":"Y","lineNum":"4호선","lineMng":1,"lineCode":"1004","stationCode":"1754","stationNum":"448","stationName":"상록수","stationSub":"/","stationNmEng":"Sangnoksu","platform":"양쪽","lavatory":"바깥","cross":"연결됨","posLat":"37.3028768004" ,"posLng":"126.8663928908" },
{"idx":233,"use":"Y","lineNum":"4호선","lineMng":1,"lineCode":"1004","stationCode":"1755","stationNum":"449","stationName":"한대앞","stationSub":"/","stationNmEng":"Hanyang Univ. at Ansan","platform":"양쪽","lavatory":"안쪽","cross":"연결됨","posLat":"37.3096926106" ,"posLng":"126.8536674286" },
{"idx":234,"use":"Y","lineNum":"4호선","lineMng":1,"lineCode":"1004","stationCode":"1756","stationNum":"450","stationName":"중앙","stationSub":"/","stationNmEng":"Jungang","platform":"양쪽","lavatory":"안쪽","cross":"연결됨","posLat":"37.3160690455" ,"posLng":"126.8385433883" },
{"idx":235,"use":"Y","lineNum":"4호선","lineMng":1,"lineCode":"1004","stationCode":"1757","stationNum":"451","stationName":"고잔","stationSub":"/","stationNmEng":"Gojan","platform":"양쪽","lavatory":"안쪽","cross":"연결됨","posLat":"37.3168899793" ,"posLng":"126.8231197181" },
{"idx":236,"use":"Y","lineNum":"4호선","lineMng":1,"lineCode":"1004","stationCode":"1758","stationNum":"452","stationName":"초지","stationSub":"/","stationNmEng":"Choji","platform":"양쪽","lavatory":"안쪽","cross":"연결됨","posLat":"37.3205948666" ,"posLng":"126.8061609488" },
{"idx":237,"use":"Y","lineNum":"4호선","lineMng":1,"lineCode":"1004","stationCode":"1759","stationNum":"453","stationName":"안산","stationSub":"/","stationNmEng":"Ansan","platform":"양쪽","lavatory":"바깥","cross":"연결됨","posLat":"37.3269348945" ,"posLng":"126.7889551992" },
{"idx":238,"use":"Y","lineNum":"4호선","lineMng":1,"lineCode":"1004","stationCode":"1760","stationNum":"454","stationName":"신길온천","stationSub":"/","stationNmEng":"Singil oncheon","platform":"중앙","lavatory":"바깥","cross":"연결됨","posLat":"37.3374974117" ,"posLng":"126.7673219176" },
{"idx":239,"use":"Y","lineNum":"4호선","lineMng":1,"lineCode":"1004","stationCode":"1761","stationNum":"455","stationName":"정왕","stationSub":"/","stationNmEng":"Jeongwang","platform":"양쪽","lavatory":"바깥","cross":"연결됨","posLat":"37.3518283043" ,"posLng":"126.7428546281" },
{"idx":240,"use":"Y","lineNum":"4호선","lineMng":1,"lineCode":"1004","stationCode":"1762","stationNum":"456","stationName":"오이도","stationSub":"/","stationNmEng":"Oido","platform":"중앙","lavatory":"바깥","cross":"연결안됨","posLat":"37.3622159957" ,"posLng":"126.7384821928" },
{"idx":241,"use":"Y","lineNum":"5호선","lineMng":3,"lineCode":"1005","stationCode":"2511","stationNum":"510","stationName":"방화","stationSub":"/","stationNmEng":"Banghwa","platform":"중앙","lavatory":"바깥","cross":"연결됨","posLat":"37.5776312886" ,"posLng":"126.8128400041" },
{"idx":242,"use":"Y","lineNum":"5호선","lineMng":3,"lineCode":"1005","stationCode":"2512","stationNum":"511","stationName":"개화산","stationSub":"/","stationNmEng":"Gaehwasan","platform":"양쪽","lavatory":"바깥","cross":"연결됨","posLat":"37.5724135715" ,"posLng":"126.8056098214" },
{"idx":243,"use":"Y","lineNum":"5호선","lineMng":3,"lineCode":"1005","stationCode":"2513","stationNum":"512","stationName":"김포공항","stationSub":"/","stationNmEng":"Gimpo Int'l Airport","platform":"양쪽","lavatory":"바깥","cross":"연결안됨","posLat":"37.5625589680" ,"posLng":"126.8014205689" },
{"idx":244,"use":"Y","lineNum":"5호선","lineMng":3,"lineCode":"1005","stationCode":"2514","stationNum":"513","stationName":"송정","stationSub":"/","stationNmEng":"Songjeong","platform":"중앙","lavatory":"바깥","cross":"연결됨","posLat":"37.5611739698" ,"posLng":"126.8123878260" },
{"idx":245,"use":"Y","lineNum":"5호선","lineMng":3,"lineCode":"1005","stationCode":"2515","stationNum":"514","stationName":"마곡","stationSub":"/","stationNmEng":"Magok","platform":"양쪽","lavatory":"바깥","cross":"연결됨","posLat":"37.5602606853" ,"posLng":"126.8246828589" },
{"idx":246,"use":"Y","lineNum":"5호선","lineMng":3,"lineCode":"1005","stationCode":"2516","stationNum":"515","stationName":"발산","stationSub":"/","stationNmEng":"Balsan","platform":"양쪽","lavatory":"바깥","cross":"연결안됨","posLat":"37.5589324831" ,"posLng":"126.8370632754" },
{"idx":247,"use":"Y","lineNum":"5호선","lineMng":3,"lineCode":"1005","stationCode":"2517","stationNum":"516","stationName":"우장산","stationSub":"/","stationNmEng":"Ujangsan","platform":"양쪽","lavatory":"바깥","cross":"연결됨","posLat":"37.5488879391" ,"posLng":"126.8363477828" },
{"idx":248,"use":"Y","lineNum":"5호선","lineMng":3,"lineCode":"1005","stationCode":"2518","stationNum":"517","stationName":"화곡","stationSub":"/","stationNmEng":"Hwagok","platform":"중앙","lavatory":"바깥","cross":"연결됨","posLat":"37.5415848764" ,"posLng":"126.8404556026" },
{"idx":249,"use":"Y","lineNum":"5호선","lineMng":3,"lineCode":"1005","stationCode":"2519","stationNum":"518","stationName":"까치산","stationSub":"/","stationNmEng":"Kkachisan","platform":"중앙","lavatory":"바깥","cross":"연결됨","posLat":"37.5322310000" ,"posLng":"126.8460940000" },
{"idx":250,"use":"Y","lineNum":"5호선","lineMng":3,"lineCode":"1005","stationCode":"2520","stationNum":"519","stationName":"신정","stationSub":"/","stationNmEng":"Sinjeong","platform":"양쪽","lavatory":"안쪽","cross":"연결됨","posLat":"37.5249877545" ,"posLng":"126.8561773636" },
{"idx":251,"use":"Y","lineNum":"5호선","lineMng":3,"lineCode":"1005","stationCode":"2521","stationNum":"520","stationName":"목동","stationSub":"/","stationNmEng":"Mok-dong","platform":"양쪽","lavatory":"바깥","cross":"연결됨","posLat":"37.5260398970" ,"posLng":"126.8653138185" },
{"idx":252,"use":"Y","lineNum":"5호선","lineMng":3,"lineCode":"1005","stationCode":"2522","stationNum":"521","stationName":"오목교","stationSub":"/","stationNmEng":"Omokgyo","platform":"양쪽","lavatory":"바깥","cross":"연결안됨","posLat":"37.5245652662" ,"posLng":"126.8750654257" },
{"idx":253,"use":"Y","lineNum":"5호선","lineMng":3,"lineCode":"1005","stationCode":"2523","stationNum":"522","stationName":"양평","stationSub":"/","stationNmEng":"Yangpyeong","platform":"양쪽","lavatory":"안쪽","cross":"연결됨","posLat":"37.5256168090" ,"posLng":"126.8862045752" },
{"idx":254,"use":"Y","lineNum":"5호선","lineMng":3,"lineCode":"1005","stationCode":"2524","stationNum":"523","stationName":"영등포구청","stationSub":"/","stationNmEng":"Yeongdeungpo-gu Office","platform":"양쪽","lavatory":"바깥","cross":"연결됨","posLat":"37.5241810000" ,"posLng":"126.8953920000" },
{"idx":255,"use":"Y","lineNum":"5호선","lineMng":3,"lineCode":"1005","stationCode":"2525","stationNum":"524","stationName":"영등포시장","stationSub":"/","stationNmEng":"Yeongdeungpo Market","platform":"중앙","lavatory":"바깥","cross":"연결됨","posLat":"37.5227207853" ,"posLng":"126.9051061561" },
{"idx":256,"use":"Y","lineNum":"5호선","lineMng":3,"lineCode":"1005","stationCode":"2526","stationNum":"525","stationName":"신길","stationSub":"/","stationNmEng":"Singil","platform":"양쪽","lavatory":"바깥","cross":"연결됨","posLat":"37.5179570000" ,"posLng":"126.9148692000" },
{"idx":257,"use":"Y","lineNum":"5호선","lineMng":3,"lineCode":"1005","stationCode":"2527","stationNum":"526","stationName":"여의도","stationSub":"/","stationNmEng":"Yeouido","platform":"양쪽","lavatory":"바깥","cross":"연결됨","posLat":"37.5216519314" ,"posLng":"126.9241271630" },
{"idx":258,"use":"Y","lineNum":"5호선","lineMng":3,"lineCode":"1005","stationCode":"2528","stationNum":"527","stationName":"여의나루","stationSub":"/","stationNmEng":"Yeouinaru","platform":"중앙","lavatory":"바깥","cross":"연결됨","posLat":"37.5271460463" ,"posLng":"126.9328277014" },
{"idx":259,"use":"Y","lineNum":"5호선","lineMng":3,"lineCode":"1005","stationCode":"2529","stationNum":"528","stationName":"마포","stationSub":"/","stationNmEng":"Mapo","platform":"중앙","lavatory":"바깥","cross":"연결됨","posLat":"37.5397171338" ,"posLng":"126.9460576460" },
{"idx":260,"use":"Y","lineNum":"5호선","lineMng":3,"lineCode":"1005","stationCode":"2530","stationNum":"529","stationName":"공덕","stationSub":"/","stationNmEng":"Gongdeok","platform":"중앙","lavatory":"바깥","cross":"연결됨","posLat":"37.5444861988" ,"posLng":"126.9514110676" },
{"idx":261,"use":"Y","lineNum":"5호선","lineMng":3,"lineCode":"1005","stationCode":"2531","stationNum":"530","stationName":"애오개","stationSub":"/","stationNmEng":"Aeogae","platform":"양쪽","lavatory":"바깥","cross":"연결됨","posLat":"37.5535980176" ,"posLng":"126.9567612989" },
{"idx":262,"use":"Y","lineNum":"5호선","lineMng":3,"lineCode":"1005","stationCode":"2532","stationNum":"531","stationName":"충정로","stationSub":"/","stationNmEng":"Chungjeongno","platform":"중앙","lavatory":"바깥","cross":"연결됨","posLat":"37.5604320000" ,"posLng":"126.9630120000" },
{"idx":263,"use":"Y","lineNum":"5호선","lineMng":3,"lineCode":"1005","stationCode":"2533","stationNum":"532","stationName":"서대문","stationSub":"/","stationNmEng":"Seodaemun","platform":"중앙","lavatory":"바깥","cross":"연결됨","posLat":"37.5657769855" ,"posLng":"126.9666660126" },
{"idx":264,"use":"Y","lineNum":"5호선","lineMng":3,"lineCode":"1005","stationCode":"2534","stationNum":"533","stationName":"광화문","stationSub":"/","stationNmEng":"Gwanghwamun","platform":"양쪽","lavatory":"바깥","cross":"연결됨","posLat":"37.5716288260" ,"posLng":"126.9764566201" },
{"idx":265,"use":"Y","lineNum":"5호선","lineMng":3,"lineCode":"1005","stationCode":"2535","stationNum":"534","stationName":"종로3가","stationSub":"/","stationNmEng":"Jongno 3(sam)-ga","platform":"중앙","lavatory":"바깥","cross":"연결됨","posLat":"37.5725380000" ,"posLng":"126.9904520000" },
{"idx":266,"use":"Y","lineNum":"5호선","lineMng":3,"lineCode":"1005","stationCode":"2536","stationNum":"535","stationName":"을지로4가","stationSub":"/","stationNmEng":"Euljiro 4(sa)-ga","platform":"중앙","lavatory":"바깥","cross":"연결됨","posLat":"37.5673850000" ,"posLng":"126.9980300000" },
{"idx":267,"use":"Y","lineNum":"5호선","lineMng":3,"lineCode":"1005","stationCode":"2537","stationNum":"536","stationName":"동대문역사문화공원","stationSub":"/","stationNmEng":"Dongdaemun History & Culture Park","platform":"중앙","lavatory":"바깥","cross":"연결됨","posLat":"37.5646730000" ,"posLng":"127.0053190000" },
{"idx":268,"use":"Y","lineNum":"5호선","lineMng":3,"lineCode":"1005","stationCode":"2538","stationNum":"537","stationName":"청구","stationSub":"/","stationNmEng":"Cheonggu","platform":"중앙","lavatory":"바깥","cross":"연결됨","posLat":"37.5602154732" ,"posLng":"127.0138961936" },
{"idx":269,"use":"Y","lineNum":"5호선","lineMng":3,"lineCode":"1005","stationCode":"2539","stationNum":"538","stationName":"신금호","stationSub":"/","stationNmEng":"Singeumho","platform":"중앙","lavatory":"바깥","cross":"연결됨","posLat":"37.5544630459" ,"posLng":"127.0210341981" },
{"idx":270,"use":"Y","lineNum":"5호선","lineMng":3,"lineCode":"1005","stationCode":"2540","stationNum":"539","stationName":"행당","stationSub":"/","stationNmEng":"Haengdang","platform":"중앙","lavatory":"바깥","cross":"연결됨","posLat":"37.5574084428" ,"posLng":"127.0296541800" },
{"idx":271,"use":"Y","lineNum":"5호선","lineMng":3,"lineCode":"1005","stationCode":"2541","stationNum":"540","stationName":"왕십리","stationSub":"/","stationNmEng":"Wangsimni","platform":"양쪽","lavatory":"안쪽","cross":"연결됨","posLat":"37.5619590000" ,"posLng":"127.0373230000" },
{"idx":272,"use":"Y","lineNum":"5호선","lineMng":3,"lineCode":"1005","stationCode":"2542","stationNum":"541","stationName":"마장","stationSub":"/","stationNmEng":"Majang","platform":"중앙","lavatory":"바깥","cross":"연결됨","posLat":"37.5661400547" ,"posLng":"127.0429774286" },
{"idx":273,"use":"Y","lineNum":"5호선","lineMng":3,"lineCode":"1005","stationCode":"2543","stationNum":"542","stationName":"답십리","stationSub":"/","stationNmEng":"Dapsimni","platform":"양쪽","lavatory":"바깥","cross":"연결안됨","posLat":"37.5670809154" ,"posLng":"127.0523947459" },
{"idx":274,"use":"Y","lineNum":"5호선","lineMng":3,"lineCode":"1005","stationCode":"2544","stationNum":"543","stationName":"장한평","stationSub":"/","stationNmEng":"Janghanpyeong","platform":"중앙","lavatory":"바깥","cross":"연결됨","posLat":"37.5616029875" ,"posLng":"127.0637603063" },
{"idx":275,"use":"Y","lineNum":"5호선","lineMng":3,"lineCode":"1005","stationCode":"2545","stationNum":"544","stationName":"군자","stationSub":"/","stationNmEng":"Gunja","platform":"중앙","lavatory":"바깥","cross":"연결됨","posLat":"37.5573438610" ,"posLng":"127.0790366058" },
{"idx":276,"use":"Y","lineNum":"5호선","lineMng":3,"lineCode":"1005","stationCode":"2546","stationNum":"545","stationName":"아차산","stationSub":"/","stationNmEng":"Achasan","platform":"중앙","lavatory":"없음","cross":"연결됨","posLat":"37.5520377600" ,"posLng":"127.0896497037" },
{"idx":277,"use":"Y","lineNum":"5호선","lineMng":3,"lineCode":"1005","stationCode":"2547","stationNum":"546","stationName":"광나루","stationSub":"/","stationNmEng":"Gwangnaru","platform":"중앙","lavatory":"바깥","cross":"연결됨","posLat":"37.5453415905" ,"posLng":"127.1036276591" },
{"idx":278,"use":"Y","lineNum":"5호선","lineMng":3,"lineCode":"1005","stationCode":"2548","stationNum":"547","stationName":"천호","stationSub":"/","stationNmEng":"Cheonho","platform":"양쪽","lavatory":"바깥","cross":"연결됨","posLat":"37.5385801966" ,"posLng":"127.1236010880" },
{"idx":279,"use":"Y","lineNum":"5호선","lineMng":3,"lineCode":"1005","stationCode":"2549","stationNum":"548","stationName":"강동","stationSub":"/","stationNmEng":"Gangdong","platform":"중앙","lavatory":"바깥","cross":"연결됨","posLat":"37.5359495051" ,"posLng":"127.1322086657" },
{"idx":280,"use":"Y","lineNum":"5호선","lineMng":3,"lineCode":"1005","stationCode":"2550","stationNum":"549","stationName":"길동","stationSub":"/","stationNmEng":"Gil-dong","platform":"중앙","lavatory":"바깥","cross":"연결됨","posLat":"37.5377725306" ,"posLng":"127.1400064950" },
{"idx":281,"use":"Y","lineNum":"5호선","lineMng":3,"lineCode":"1005","stationCode":"2551","stationNum":"550","stationName":"굽은다리","stationSub":"/","stationNmEng":"Gubeundari","platform":"중앙","lavatory":"바깥","cross":"연결됨","posLat":"37.5455428192" ,"posLng":"127.1429275843" },
{"idx":282,"use":"Y","lineNum":"5호선","lineMng":3,"lineCode":"1005","stationCode":"2552","stationNum":"551","stationName":"명일","stationSub":"/","stationNmEng":"Myeongil","platform":"중앙","lavatory":"바깥","cross":"연결됨","posLat":"37.5513175385" ,"posLng":"127.1440272621" },
{"idx":283,"use":"Y","lineNum":"5호선","lineMng":3,"lineCode":"1005","stationCode":"2553","stationNum":"552","stationName":"고덕","stationSub":"/","stationNmEng":"Godeok","platform":"중앙","lavatory":"바깥","cross":"연결됨","posLat":"37.5550574905" ,"posLng":"127.1541254787" },
{"idx":284,"use":"Y","lineNum":"5호선","lineMng":3,"lineCode":"1005","stationCode":"2554","stationNum":"553","stationName":"상일동","stationSub":"/","stationNmEng":"Sangil-dong","platform":"중앙","lavatory":"바깥","cross":"연결됨","posLat":"37.5566449334" ,"posLng":"127.1657653552" },
{"idx":285,"use":"Y","lineNum":"5호선","lineMng":3,"lineCode":"1005","stationCode":"2555","stationNum":"P549","stationName":"둔촌동","stationSub":"/","stationNmEng":"Dunchon-dong","platform":"중앙","lavatory":"바깥","cross":"연결됨","posLat":"37.5276623475" ,"posLng":"127.1362530563" },
{"idx":286,"use":"Y","lineNum":"5호선","lineMng":3,"lineCode":"1005","stationCode":"2556","stationNum":"P550","stationName":"올림픽공원","stationSub":"/","stationNmEng":"Olympic Park","platform":"중앙","lavatory":"바깥","cross":"연결됨","posLat":"37.5166317541" ,"posLng":"127.1311085331" },
{"idx":287,"use":"Y","lineNum":"5호선","lineMng":3,"lineCode":"1005","stationCode":"2557","stationNum":"P551","stationName":"방이","stationSub":"/","stationNmEng":"Bangi","platform":"중앙","lavatory":"바깥","cross":"연결됨","posLat":"37.5085655039" ,"posLng":"127.1259762297" },
{"idx":288,"use":"Y","lineNum":"5호선","lineMng":2,"lineCode":"1005","stationCode":"2558","stationNum":"P552","stationName":"오금","stationSub":"/","stationNmEng":"Ogeum","platform":"중앙","lavatory":"안쪽","cross":"연결됨","posLat":"37.5021193880" ,"posLng":"127.1279400256" },
{"idx":289,"use":"Y","lineNum":"5호선","lineMng":3,"lineCode":"1005","stationCode":"2559","stationNum":"P553","stationName":"개롱","stationSub":"/","stationNmEng":"Gaerong","platform":"중앙","lavatory":"바깥","cross":"연결됨","posLat":"37.4979729247" ,"posLng":"127.1350904483" },
{"idx":290,"use":"Y","lineNum":"5호선","lineMng":3,"lineCode":"1005","stationCode":"2560","stationNum":"P554","stationName":"거여","stationSub":"/","stationNmEng":"Geoyeo","platform":"중앙","lavatory":"바깥","cross":"연결됨","posLat":"37.4934304811" ,"posLng":"127.1436129510" },
{"idx":291,"use":"Y","lineNum":"5호선","lineMng":3,"lineCode":"1005","stationCode":"2561","stationNum":"P555","stationName":"마천","stationSub":"/","stationNmEng":"Macheon","platform":"중앙","lavatory":"바깥","cross":"연결안됨","posLat":"37.4950285055" ,"posLng":"127.1528115094" },
{"idx":292,"use":"Y","lineNum":"6호선","lineMng":3,"lineCode":"1006","stationCode":"2611","stationNum":"610","stationName":"응암","stationSub":"/","stationNmEng":"Eungam","platform":"중앙","lavatory":"바깥","cross":"연결됨","posLat":"37.5984776878" ,"posLng":"126.9156058104" },
{"idx":293,"use":"Y","lineNum":"6호선","lineMng":3,"lineCode":"1006","stationCode":"2612","stationNum":"611","stationName":"역촌","stationSub":"/","stationNmEng":"Yeokchon","platform":"기타","lavatory":"바깥","cross":"연결안됨","posLat":"37.6060305604" ,"posLng":"126.9227446390" },
{"idx":294,"use":"Y","lineNum":"6호선","lineMng":3,"lineCode":"1006","stationCode":"2613","stationNum":"612","stationName":"불광","stationSub":"/","stationNmEng":"Bulgwang","platform":"중앙","lavatory":"바깥","cross":"연결안됨","posLat":"37.6100690000" ,"posLng":"126.9302220000" },
{"idx":295,"use":"Y","lineNum":"6호선","lineMng":3,"lineCode":"1006","stationCode":"2614","stationNum":"613","stationName":"독바위","stationSub":"/","stationNmEng":"Dokbawi","platform":"기타","lavatory":"바깥","cross":"연결안됨","posLat":"37.6187013487" ,"posLng":"126.9329266891" },
{"idx":296,"use":"Y","lineNum":"6호선","lineMng":2,"lineCode":"1006","stationCode":"2615","stationNum":"614","stationName":"연신내","stationSub":"/","stationNmEng":"Yeonsinnae","platform":"중앙","lavatory":"바깥","cross":"연결안됨","posLat":"37.6186850000" ,"posLng":"126.9207870000" },
{"idx":297,"use":"Y","lineNum":"6호선","lineMng":3,"lineCode":"1006","stationCode":"2616","stationNum":"615","stationName":"구산","stationSub":"/","stationNmEng":"Gusan","platform":"기타","lavatory":"바깥","cross":"연결안됨","posLat":"37.6113330206" ,"posLng":"126.9173109025" },
{"idx":298,"use":"Y","lineNum":"6호선","lineMng":3,"lineCode":"1006","stationCode":"2617","stationNum":"616","stationName":"새절","stationSub":"/","stationNmEng":"Saejeol","platform":"양쪽","lavatory":"바깥","cross":"연결됨","posLat":"37.5910257112" ,"posLng":"126.9135963646" },
{"idx":299,"use":"Y","lineNum":"6호선","lineMng":3,"lineCode":"1006","stationCode":"2618","stationNum":"617","stationName":"증산","stationSub":"/","stationNmEng":"Jeungsan","platform":"양쪽","lavatory":"바깥","cross":"연결됨","posLat":"37.5839437683" ,"posLng":"126.9097024419" },
{"idx":300,"use":"Y","lineNum":"6호선","lineMng":3,"lineCode":"1006","stationCode":"2619","stationNum":"618","stationName":"디지털미디어시티","stationSub":"/","stationNmEng":"Digital Media City","platform":"양쪽","lavatory":"바깥","cross":"연결됨","posLat":"37.5760725703" ,"posLng":"126.9013603175" },
{"idx":301,"use":"Y","lineNum":"6호선","lineMng":3,"lineCode":"1006","stationCode":"2620","stationNum":"619","stationName":"월드컵경기장","stationSub":"/","stationNmEng":"World Cup Stadium","platform":"양쪽","lavatory":"없음","cross":"연결됨","posLat":"37.5696629885" ,"posLng":"126.8990771607" },
{"idx":302,"use":"Y","lineNum":"6호선","lineMng":3,"lineCode":"1006","stationCode":"2621","stationNum":"620","stationName":"마포구청","stationSub":"/","stationNmEng":"Mapo-gu Office","platform":"양쪽","lavatory":"바깥","cross":"연결됨","posLat":"37.5637722290" ,"posLng":"126.9031707107" },
{"idx":303,"use":"Y","lineNum":"6호선","lineMng":3,"lineCode":"1006","stationCode":"2622","stationNum":"621","stationName":"망원","stationSub":"/","stationNmEng":"Mangwon","platform":"양쪽","lavatory":"바깥","cross":"연결됨","posLat":"37.5560694550" ,"posLng":"126.9101082006" },
{"idx":304,"use":"Y","lineNum":"6호선","lineMng":3,"lineCode":"1006","stationCode":"2623","stationNum":"622","stationName":"합정","stationSub":"/","stationNmEng":"Hapjeong","platform":"양쪽","lavatory":"바깥","cross":"연결됨","posLat":"37.5492914000" ,"posLng":"126.9136884000" },
{"idx":305,"use":"Y","lineNum":"6호선","lineMng":3,"lineCode":"1006","stationCode":"2624","stationNum":"623","stationName":"상수","stationSub":"/","stationNmEng":"Sangsu","platform":"중앙","lavatory":"바깥","cross":"연결됨","posLat":"37.5477664826" ,"posLng":"126.9224057153" },
{"idx":306,"use":"Y","lineNum":"6호선","lineMng":3,"lineCode":"1006","stationCode":"2625","stationNum":"624","stationName":"광흥창","stationSub":"/","stationNmEng":"Gwangheungchang","platform":"중앙","lavatory":"바깥","cross":"연결됨","posLat":"37.5474919552" ,"posLng":"126.9318703897" },
{"idx":307,"use":"Y","lineNum":"6호선","lineMng":3,"lineCode":"1006","stationCode":"2626","stationNum":"625","stationName":"대흥","stationSub":"/","stationNmEng":"Daeheung","platform":"중앙","lavatory":"바깥","cross":"연결됨","posLat":"37.5476852558" ,"posLng":"126.9423468975" },
{"idx":308,"use":"Y","lineNum":"6호선","lineMng":3,"lineCode":"1006","stationCode":"2627","stationNum":"626","stationName":"공덕","stationSub":"/","stationNmEng":"Gongdeok","platform":"양쪽","lavatory":"바깥","cross":"연결됨","posLat":"37.5475640000" ,"posLng":"126.9420010000" },
{"idx":309,"use":"Y","lineNum":"6호선","lineMng":3,"lineCode":"1006","stationCode":"2628","stationNum":"627","stationName":"효창공원앞","stationSub":"/","stationNmEng":"Hyochang Park","platform":"중앙","lavatory":"바깥","cross":"연결됨","posLat":"37.5392413489" ,"posLng":"126.9615325373" },
{"idx":310,"use":"Y","lineNum":"6호선","lineMng":3,"lineCode":"1006","stationCode":"2629","stationNum":"628","stationName":"삼각지","stationSub":"/","stationNmEng":"Samgakji","platform":"중앙","lavatory":"없음","cross":"연결됨","posLat":"37.5346918345" ,"posLng":"126.9865446094" },
{"idx":311,"use":"Y","lineNum":"6호선","lineMng":3,"lineCode":"1006","stationCode":"2630","stationNum":"629","stationName":"녹사평","stationSub":"/","stationNmEng":"Noksapyeong","platform":"중앙","lavatory":"없음","cross":"연결됨","posLat":"37.5345442733" ,"posLng":"126.9945913990" },
{"idx":312,"use":"Y","lineNum":"6호선","lineMng":3,"lineCode":"1006","stationCode":"2631","stationNum":"630","stationName":"이태원","stationSub":"/","stationNmEng":"Itaewon","platform":"양쪽","lavatory":"없음","cross":"연결됨","posLat":"37.5395246857" ,"posLng":"127.0017552365" },
{"idx":313,"use":"Y","lineNum":"6호선","lineMng":3,"lineCode":"1006","stationCode":"2632","stationNum":"631","stationName":"한강진","stationSub":"/","stationNmEng":"Hangangjin","platform":"양쪽","lavatory":"바깥","cross":"연결됨","posLat":"37.5477447329" ,"posLng":"127.0063309177" },
{"idx":314,"use":"Y","lineNum":"6호선","lineMng":3,"lineCode":"1006","stationCode":"2633","stationNum":"632","stationName":"버티고개","stationSub":"/","stationNmEng":"Beotigogae","platform":"중앙","lavatory":"바깥","cross":"연결됨","posLat":"37.5479310000" ,"posLng":"127.0069710000" },
{"idx":315,"use":"Y","lineNum":"6호선","lineMng":3,"lineCode":"1006","stationCode":"2634","stationNum":"633","stationName":"약수","stationSub":"/","stationNmEng":"Yaksu","platform":"양쪽","lavatory":"바깥","cross":"연결됨","posLat":"37.5541900000" ,"posLng":"127.0106521000" },
{"idx":316,"use":"Y","lineNum":"6호선","lineMng":3,"lineCode":"1006","stationCode":"2635","stationNum":"634","stationName":"청구","stationSub":"/","stationNmEng":"Cheonggu","platform":"양쪽","lavatory":"바깥","cross":"연결됨","posLat":"37.5602051000" ,"posLng":"127.0138750000" },
{"idx":317,"use":"Y","lineNum":"6호선","lineMng":3,"lineCode":"1006","stationCode":"2636","stationNum":"635","stationName":"신당","stationSub":"/","stationNmEng":"Sindang","platform":"중앙","lavatory":"바깥","cross":"연결됨","posLat":"37.5659527000" ,"posLng":"127.0170647000" },
{"idx":318,"use":"Y","lineNum":"6호선","lineMng":3,"lineCode":"1006","stationCode":"2637","stationNum":"636","stationName":"동묘앞","stationSub":"/","stationNmEng":"Dongmyo","platform":"중앙","lavatory":"안쪽,바깥쪽","cross":"연결됨","posLat":"37.5724553000" ,"posLng":"127.0158555000" },
{"idx":319,"use":"Y","lineNum":"6호선","lineMng":3,"lineCode":"1006","stationCode":"2638","stationNum":"637","stationName":"창신","stationSub":"/","stationNmEng":"Changsin","platform":"중앙","lavatory":"안쪽","cross":"연결됨","posLat":"37.5793653205" ,"posLng":"127.0152969842" },
{"idx":320,"use":"Y","lineNum":"6호선","lineMng":3,"lineCode":"1006","stationCode":"2639","stationNum":"638","stationName":"보문","stationSub":"/","stationNmEng":"Bomun","platform":"중앙","lavatory":"바깥","cross":"연결됨","posLat":"37.5854664047" ,"posLng":"127.0197570508" },
{"idx":321,"use":"Y","lineNum":"6호선","lineMng":3,"lineCode":"1006","stationCode":"2640","stationNum":"639","stationName":"안암","stationSub":"/","stationNmEng":"Anam","platform":"양쪽","lavatory":"안쪽,바깥쪽","cross":"연결됨","posLat":"37.5862738167" ,"posLng":"127.0291555743" },
{"idx":322,"use":"Y","lineNum":"6호선","lineMng":3,"lineCode":"1006","stationCode":"2641","stationNum":"640","stationName":"고려대","stationSub":"/","stationNmEng":"Korea Univ.","platform":"양쪽","lavatory":"없음","cross":"연결됨","posLat":"37.5906393608" ,"posLng":"127.0363118831" },
{"idx":323,"use":"Y","lineNum":"6호선","lineMng":3,"lineCode":"1006","stationCode":"2642","stationNum":"641","stationName":"월곡","stationSub":"/","stationNmEng":"Wolgok","platform":"양쪽","lavatory":"없음","cross":"연결됨","posLat":"37.6019359284" ,"posLng":"127.0415457665" },
{"idx":324,"use":"Y","lineNum":"6호선","lineMng":3,"lineCode":"1006","stationCode":"2643","stationNum":"642","stationName":"상월곡","stationSub":"/","stationNmEng":"Sangwolgok","platform":"양쪽","lavatory":"바깥","cross":"연결됨","posLat":"37.6063065586" ,"posLng":"127.0483078234" },
{"idx":325,"use":"Y","lineNum":"6호선","lineMng":3,"lineCode":"1006","stationCode":"2644","stationNum":"643","stationName":"돌곶이","stationSub":"/","stationNmEng":"Dolgoji","platform":"양쪽","lavatory":"바깥","cross":"연결됨","posLat":"37.6104983774" ,"posLng":"127.0564207608" },
{"idx":326,"use":"Y","lineNum":"6호선","lineMng":3,"lineCode":"1006","stationCode":"2645","stationNum":"644","stationName":"석계","stationSub":"/","stationNmEng":"Seokgye","platform":"양쪽","lavatory":"안쪽","cross":"연결됨","posLat":"37.6148517000" ,"posLng":"127.0664372000" },
{"idx":327,"use":"Y","lineNum":"6호선","lineMng":3,"lineCode":"1006","stationCode":"2646","stationNum":"645","stationName":"태릉입구","stationSub":"/","stationNmEng":"Taereung","platform":"양쪽","lavatory":"바깥","cross":"연결됨","posLat":"37.6173290461" ,"posLng":"127.0747528639" },
{"idx":328,"use":"Y","lineNum":"6호선","lineMng":3,"lineCode":"1006","stationCode":"2647","stationNum":"646","stationName":"화랑대","stationSub":"/","stationNmEng":"Hwarangdae","platform":"양쪽","lavatory":"바깥","cross":"연결됨","posLat":"37.6198120048" ,"posLng":"127.0835011465" },
{"idx":329,"use":"Y","lineNum":"6호선","lineMng":3,"lineCode":"1006","stationCode":"2648","stationNum":"647","stationName":"봉화산","stationSub":"/","stationNmEng":"Bonghwasan","platform":"양쪽","lavatory":"바깥","cross":"연결됨","posLat":"37.6173764433" ,"posLng":"127.0913129141" },
{"idx":330,"use":"Y","lineNum":"7호선","lineMng":3,"lineCode":"1007","stationCode":"2711","stationNum":"709","stationName":"장암","stationSub":"/","stationNmEng":"Jangam","platform":"중앙","lavatory":"바깥","cross":"연결됨","posLat":"37.6996587244" ,"posLng":"127.0522997049" },
{"idx":331,"use":"Y","lineNum":"7호선","lineMng":3,"lineCode":"1007","stationCode":"2712","stationNum":"710","stationName":"도봉산","stationSub":"/","stationNmEng":"Dobongsan","platform":"양쪽","lavatory":"바깥","cross":"연결됨","posLat":"37.6890678000" ,"posLng":"127.0475771000" },
{"idx":332,"use":"Y","lineNum":"7호선","lineMng":3,"lineCode":"1007","stationCode":"2713","stationNum":"711","stationName":"수락산","stationSub":"/","stationNmEng":"Suraksan","platform":"양쪽","lavatory":"바깥","cross":"연결됨","posLat":"37.6778869458" ,"posLng":"127.0553084301" },
{"idx":333,"use":"Y","lineNum":"7호선","lineMng":3,"lineCode":"1007","stationCode":"2714","stationNum":"712","stationName":"마들","stationSub":"/","stationNmEng":"Madeul","platform":"중앙","lavatory":"바깥","cross":"연결됨","posLat":"37.6653811668" ,"posLng":"127.0576316442" },
{"idx":334,"use":"Y","lineNum":"7호선","lineMng":3,"lineCode":"1007","stationCode":"2715","stationNum":"713","stationName":"노원","stationSub":"/","stationNmEng":"Nowon","platform":"중앙","lavatory":"바깥","cross":"연결됨","posLat":"37.6551315000" ,"posLng":"127.0608742000" },
{"idx":335,"use":"Y","lineNum":"7호선","lineMng":3,"lineCode":"1007","stationCode":"2716","stationNum":"714","stationName":"중계","stationSub":"/","stationNmEng":"Junggye","platform":"중앙","lavatory":"바깥","cross":"연결됨","posLat":"37.6453476823" ,"posLng":"127.0639921762" },
{"idx":336,"use":"Y","lineNum":"7호선","lineMng":3,"lineCode":"1007","stationCode":"2717","stationNum":"715","stationName":"하계","stationSub":"/","stationNmEng":"Hagye","platform":"중앙","lavatory":"바깥","cross":"연결됨","posLat":"37.6363244151" ,"posLng":"127.0680594715" },
{"idx":337,"use":"Y","lineNum":"7호선","lineMng":3,"lineCode":"1007","stationCode":"2718","stationNum":"716","stationName":"공릉","stationSub":"/","stationNmEng":"Gongneung","platform":"양쪽","lavatory":"바깥","cross":"연결됨","posLat":"37.6257934281" ,"posLng":"127.0729148242" },
{"idx":338,"use":"Y","lineNum":"7호선","lineMng":3,"lineCode":"1007","stationCode":"2719","stationNum":"717","stationName":"태릉입구","stationSub":"/","stationNmEng":"Taereung","platform":"양쪽","lavatory":"바깥","cross":"연결됨","posLat":"37.6184960000" ,"posLng":"127.0753300000" },
{"idx":339,"use":"Y","lineNum":"7호선","lineMng":3,"lineCode":"1007","stationCode":"2720","stationNum":"718","stationName":"먹골","stationSub":"/","stationNmEng":"Meokgol","platform":"양쪽","lavatory":"바깥","cross":"연결안됨","posLat":"37.6107836630" ,"posLng":"127.0777220663" },
{"idx":340,"use":"Y","lineNum":"7호선","lineMng":3,"lineCode":"1007","stationCode":"2721","stationNum":"719","stationName":"중화","stationSub":"/","stationNmEng":"Junghwa","platform":"양쪽","lavatory":"바깥","cross":"연결됨","posLat":"37.6025785097" ,"posLng":"127.0793068142" },
{"idx":341,"use":"Y","lineNum":"7호선","lineMng":3,"lineCode":"1007","stationCode":"2722","stationNum":"720","stationName":"상봉","stationSub":"/","stationNmEng":"Sangbong","platform":"양쪽","lavatory":"바깥","cross":"연결안됨","posLat":"37.5956272849" ,"posLng":"127.0857338284" },
{"idx":342,"use":"Y","lineNum":"7호선","lineMng":3,"lineCode":"1007","stationCode":"2723","stationNum":"721","stationName":"면목","stationSub":"/","stationNmEng":"Myeonmok","platform":"양쪽","lavatory":"바깥","cross":"연결됨","posLat":"37.5887570706" ,"posLng":"127.0875162028" },
{"idx":343,"use":"Y","lineNum":"7호선","lineMng":3,"lineCode":"1007","stationCode":"2724","stationNum":"722","stationName":"사가정","stationSub":"/","stationNmEng":"Sagajeong","platform":"양쪽","lavatory":"바깥","cross":"연결됨","posLat":"37.5809707376" ,"posLng":"127.0885168482" },
{"idx":344,"use":"Y","lineNum":"7호선","lineMng":3,"lineCode":"1007","stationCode":"2725","stationNum":"723","stationName":"용마산","stationSub":"/","stationNmEng":"Yongmasan","platform":"양쪽","lavatory":"바깥","cross":"연결됨","posLat":"37.5738034642" ,"posLng":"127.0868380377" },
{"idx":345,"use":"Y","lineNum":"7호선","lineMng":3,"lineCode":"1007","stationCode":"2726","stationNum":"724","stationName":"중곡","stationSub":"/","stationNmEng":"Junggok","platform":"양쪽","lavatory":"바깥","cross":"연결됨","posLat":"37.5655467689" ,"posLng":"127.0841088021" },
{"idx":346,"use":"Y","lineNum":"7호선","lineMng":3,"lineCode":"1007","stationCode":"2727","stationNum":"725","stationName":"군자","stationSub":"/","stationNmEng":"Gunja","platform":"양쪽","lavatory":"바깥","cross":"연결됨","posLat":"37.5473780000" ,"posLng":"127.0742570000" },
{"idx":347,"use":"Y","lineNum":"7호선","lineMng":3,"lineCode":"1007","stationCode":"2728","stationNum":"726","stationName":"어린이대공원","stationSub":"/","stationNmEng":"Children's Grand Park","platform":"양쪽","lavatory":"바깥","cross":"연결안됨","posLat":"37.5479113788" ,"posLng":"127.0746144376" },
{"idx":348,"use":"Y","lineNum":"7호선","lineMng":3,"lineCode":"1007","stationCode":"2729","stationNum":"727","stationName":"건대입구","stationSub":"/","stationNmEng":"Konkuk Univ.","platform":"양쪽","lavatory":"안쪽","cross":"연결됨","posLat":"37.5408610000" ,"posLng":"127.0710380000" },
{"idx":349,"use":"Y","lineNum":"7호선","lineMng":3,"lineCode":"1007","stationCode":"2730","stationNum":"728","stationName":"뚝섬유원지","stationSub":"/","stationNmEng":"Ttukseom Resort","platform":"양쪽","lavatory":"안쪽","cross":"연결됨","posLat":"37.5315401718" ,"posLng":"127.0667040360" },
{"idx":350,"use":"Y","lineNum":"7호선","lineMng":3,"lineCode":"1007","stationCode":"2731","stationNum":"729","stationName":"청담","stationSub":"/","stationNmEng":"Cheongdam","platform":"양쪽","lavatory":"바깥","cross":"연결됨","posLat":"37.5194730045" ,"posLng":"127.0539691469" },
{"idx":351,"use":"Y","lineNum":"7호선","lineMng":3,"lineCode":"1007","stationCode":"2732","stationNum":"730","stationName":"강남구청","stationSub":"/","stationNmEng":"Gangnam-gu Office","platform":"양쪽","lavatory":"바깥","cross":"연결됨","posLat":"37.5171906741" ,"posLng":"127.0413282655" },
{"idx":352,"use":"Y","lineNum":"7호선","lineMng":3,"lineCode":"1007","stationCode":"2733","stationNum":"731","stationName":"학동","stationSub":"/","stationNmEng":"Hak-dong","platform":"양쪽","lavatory":"바깥","cross":"연결안됨","posLat":"37.5142461075" ,"posLng":"127.0316038504" },
{"idx":353,"use":"Y","lineNum":"7호선","lineMng":3,"lineCode":"1007","stationCode":"2734","stationNum":"732","stationName":"논현","stationSub":"/","stationNmEng":"Nonhyeon","platform":"양쪽","lavatory":"바깥","cross":"연결됨","posLat":"37.5112185410" ,"posLng":"127.0217455508" },
{"idx":354,"use":"Y","lineNum":"7호선","lineMng":3,"lineCode":"1007","stationCode":"2735","stationNum":"733","stationName":"반포","stationSub":"/","stationNmEng":"Banpo","platform":"양쪽","lavatory":"바깥","cross":"연결됨","posLat":"37.5082440296" ,"posLng":"127.0118647327" },
{"idx":355,"use":"Y","lineNum":"7호선","lineMng":3,"lineCode":"1007","stationCode":"2736","stationNum":"734","stationName":"고속터미널","stationSub":"/","stationNmEng":"Express Bus Terminal","platform":"양쪽","lavatory":"바깥","cross":"연결됨","posLat":"37.5035000000" ,"posLng":"127.0046620000" },
{"idx":356,"use":"Y","lineNum":"7호선","lineMng":3,"lineCode":"1007","stationCode":"2737","stationNum":"735","stationName":"내방","stationSub":"/","stationNmEng":"Naebang","platform":"양쪽","lavatory":"바깥","cross":"연결됨","posLat":"37.4875600358" ,"posLng":"126.9931286605" },
{"idx":357,"use":"Y","lineNum":"7호선","lineMng":3,"lineCode":"1007","stationCode":"2738","stationNum":"736","stationName":"이수","stationSub":"/","stationNmEng":"Isu","platform":"양쪽","lavatory":"안쪽","cross":"연결됨","posLat":"37.4853810000" ,"posLng":"126.9821390000" },
{"idx":358,"use":"Y","lineNum":"7호선","lineMng":3,"lineCode":"1007","stationCode":"2739","stationNum":"737","stationName":"남성","stationSub":"/","stationNmEng":"Namseong","platform":"양쪽","lavatory":"안쪽","cross":"연결됨","posLat":"37.4847461238" ,"posLng":"126.9708345817" },
{"idx":359,"use":"Y","lineNum":"7호선","lineMng":3,"lineCode":"1007","stationCode":"2740","stationNum":"738","stationName":"숭실대입구","stationSub":"/","stationNmEng":"Soongsil Univ.","platform":"양쪽","lavatory":"바깥","cross":"연결됨","posLat":"37.4963799722" ,"posLng":"126.9535194467" },
{"idx":360,"use":"Y","lineNum":"7호선","lineMng":3,"lineCode":"1007","stationCode":"2741","stationNum":"739","stationName":"상도","stationSub":"/","stationNmEng":"Sangdo","platform":"양쪽","lavatory":"바깥","cross":"연결안됨","posLat":"37.5025232791" ,"posLng":"126.9482312705" },
{"idx":361,"use":"Y","lineNum":"7호선","lineMng":3,"lineCode":"1007","stationCode":"2742","stationNum":"740","stationName":"장승배기","stationSub":"/","stationNmEng":"Jangseungbaegi","platform":"양쪽","lavatory":"바깥","cross":"연결안됨","posLat":"37.5049115524" ,"posLng":"126.9392061663" },
{"idx":362,"use":"Y","lineNum":"7호선","lineMng":3,"lineCode":"1007","stationCode":"2743","stationNum":"741","stationName":"신대방삼거리","stationSub":"/","stationNmEng":"Sindaebangsamgeori","platform":"양쪽","lavatory":"바깥","cross":"연결안됨","posLat":"37.4997304856" ,"posLng":"126.9282074202" },
{"idx":363,"use":"Y","lineNum":"7호선","lineMng":3,"lineCode":"1007","stationCode":"2744","stationNum":"742","stationName":"보라매","stationSub":"/","stationNmEng":"Boramae","platform":"중앙","lavatory":"바깥","cross":"연결됨","posLat":"37.4999510495" ,"posLng":"126.9197674030" },
{"idx":364,"use":"Y","lineNum":"7호선","lineMng":3,"lineCode":"1007","stationCode":"2745","stationNum":"743","stationName":"신풍","stationSub":"/","stationNmEng":"Sinpung","platform":"양쪽","lavatory":"바깥","cross":"연결됨","posLat":"37.5001131526" ,"posLng":"126.9099371233" },
{"idx":365,"use":"Y","lineNum":"7호선","lineMng":3,"lineCode":"1007","stationCode":"2746","stationNum":"744","stationName":"대림","stationSub":"/","stationNmEng":"Daerim","platform":"양쪽","lavatory":"바깥","cross":"연결됨","posLat":"37.4928250000" ,"posLng":"126.8967730000" },
{"idx":366,"use":"Y","lineNum":"7호선","lineMng":3,"lineCode":"1007","stationCode":"2747","stationNum":"745","stationName":"남구로","stationSub":"/","stationNmEng":"Namguro","platform":"양쪽","lavatory":"바깥","cross":"연결됨","posLat":"37.4860982225" ,"posLng":"126.8872883652" },